museum,lat,lng,Presidential Library,City
90.244.88.90,59.099998,-3.08333,Yes,Georth
151.226.33.235,53.116669,-3.03333,Yes,Hope
31.205.26.150,53.25,-1.41667,Yes,Chesterfield
86.25.206.148,54.973282,-1.61396,Yes,Newcastle upon Tyne
92.20.15.70,54.909191,-1.88845,Yes,Whittonstall
78.144.64.158,52.18446,-0.68759,Yes,Warrington
212.183.140.48,51.40033,-1.32059,Yes,Newbury
138.37.113.107,51.49514,-0.10057,Yes,Elephant & Castle
121.223.184.114,-35.283459,149.128067,Yes,Canberra
98.236.204.202,40.44062,-79.995888,Yes,Pittsburgh
24.3.251.118,40.44062,-79.995888,Yes,Pittsburgh
213.78.65.94,51.50853,-0.12574,Yes,London
86.142.106.112,55.849998,-2.13333,Yes,Ayton
92.237.87.151,55.73595,-3.83019,Yes,Carluke
193.190.253.147,50.850449,4.34878,Yes,Brussels
130.43.156.192,51.416672,-2.85,Yes,Kenn
86.26.248.130,52.481419,-1.89983,Yes,Birmingham
185.3.85.192,51.416672,-2.85,Yes,Kenn
62.252.96.17,50.914398,-1.56553,Yes,Bartley
41.223.117.26,-15.40669,28.28713,Yes,Lusaka
160.9.41.57,51.246769,0.60682,Yes,Leeds
140.97.235.51,51.50853,-0.12574,Yes,London
90.193.28.105,51.50853,-0.12574,Yes,London
90.192.4.141,51.691109,-4.83639,Yes,Milton
163.167.212.116,51.50853,-0.12574,Yes,London
121.210.81.249,-33.867851,151.207321,Yes,Sydney
91.110.35.253,53.480949,-2.23743,Yes,Manchester
149.170.192.145,53.480949,-2.23743,Yes,Manchester
194.176.105.41,52.481419,-1.89983,Yes,Birmingham
86.137.246.142,50.836731,-0.78003,Yes,Chichester
82.4.148.126,52.13459,-0.46632,Yes,Bedford
86.132.199.251,55.86515,-4.25763,Yes,Glasgow
78.148.233.124,54.066669,-2.83333,Yes,Lancaster
213.40.124.245,53.799999,-2.23333,Yes,Birmingham
91.125.92.109,51.456249,-0.97113,Yes,Burnley
86.9.143.250,53.382969,-1.4659,Yes,Reading
87.112.22.100,51.557968,-1.78116,Yes,Sheffield
80.44.200.161,51.50853,-0.12574,Yes,Swindon
128.243.220.21,52.953602,-1.15047,Yes,London
128.243.253.103,52.953602,-1.15047,Yes,Nottingham
90.199.226.85,53.480949,-2.23743,Yes,Nottingham
128.243.220.41,52.953602,-1.15047,Yes,Manchester
86.27.83.16,50.371529,-4.14305,Yes,Nottingham
62.252.0.5,51.235359,-0.57427,Yes,Plymouth
68.2.228.12,33.44838,-112.074043,Yes,Guildford
69.243.60.123,38.990669,-77.026093,Yes,Phoenix
71.178.203.157,38.895111,-77.036369,Yes,Silver Spring
67.175.214.53,41.770966,-88.15229,Yes,Washington
67.167.106.188,42.27113,-89.094002,Yes,Naperville
174.251.0.162,40.712791,-74.006065,Yes,Rockford
205.215.119.217,41.587433,-87.452217,Yes,New York City
50.151.239.31,41.770966,-88.15229,Yes,Hammond
124.189.50.185,-37.354691,144.529022,Yes,Naperville
197.176.170.7,-0.28333,36.066669,Yes,Woodend
24.211.81.52,34.374039,-80.073402,Yes,Nakuru
98.113.160.204,40.712791,-74.006065,Yes,Hartsville
65.32.199.221,27.49893,-82.574821,Yes,New York City
74.182.52.129,30.42131,-87.216911,Yes,Bradenton
203.122.108.93,-33.799999,151.183334,Yes,Pensacola
58.172.172.97,-42.87936,147.329407,Yes,Chatswood
220.239.46.71,-33.867851,151.207321,Yes,Hobart
220.239.160.144,-33.867851,151.207321,Yes,Sydney
174.144.17.27,21.30694,-157.858337,Yes,Sydney
144.131.88.90,-27.467939,153.028091,Yes,Honolulu
58.172.37.9,-41.000462,147.391754,Yes,Brisbane
122.104.43.118,-27.467939,153.028091,Yes,Bridport
211.30.220.115,-33.737831,151.072159,Yes,Brisbane
121.217.213.254,-33.867851,151.207321,Yes,Pennant Hills
122.106.182.147,-30.50828,151.671234,Yes,Sydney
124.183.223.213,-42.87936,147.329407,Yes,Armidale
110.32.246.69,-37.813999,144.963318,Yes,Hobart
211.30.43.39,-33.867851,151.207321,Yes,Melbourne
58.172.114.56,-42.87936,147.329407,Yes,Sydney
203.20.35.101,-33.867851,151.207321,Yes,Hobart
90.210.77.210,51.505829,-3.57722,Yes,Sydney
99.27.37.16,41.710869,-87.75811,Yes,Bridgend
138.25.2.22,-33.867851,151.207321,Yes,Oak Lawn
99.51.149.73,33.919182,-118.416473,Yes,Sydney
121.217.143.81,-33.867851,151.207321,Yes,El Segundo
70.182.150.118,30.45075,-91.154549,Yes,Sydney
121.45.146.163,-27.467939,153.028091,Yes,Sydney
81.111.45.170,51.406059,0.01519,Yes,Baton Rouge
193.219.113.2,52.229771,21.01178,Yes,Brisbane
41.35.188.75,31.039169,30.469139,Yes,Bromley
124.197.11.19,-45.874161,170.503616,Yes,Warsaw
65.4.12.202,47.603909,-122.329842,Yes,Damanhur
66.202.117.3,39.837299,-86.056198,Yes,Dunedin
213.104.208.139,50.914398,-1.56553,Yes,Seattle
77.21.84.5,52.370522,9.73322,Yes,Indianapolis
151.59.58.96,45.464272,9.18951,Yes,Bartley
24.13.198.184,41.770966,-88.15229,Yes,Hanover
81.101.246.250,52.481419,-1.89983,Yes,Milan
80.195.100.70,51.319031,-0.55893,Yes,Naperville
110.175.49.254,-33.867851,151.207321,Yes,Birmingham
199.245.32.210,42.466759,-70.949493,Yes,Woking
174.138.196.90,43.645031,-79.52227,Yes,Sydney
86.173.158.117,54.973282,-1.61396,Yes,Lynn
92.14.226.62,54.503441,-6.76723,Yes,Toronto
147.252.236.117,53.34399,-6.26719,Yes,Newcastle upon Tyne
86.148.63.1,51.246769,0.60682,Yes,Dungannon
129.215.178.77,55.952061,-3.19648,Yes,Dublin
82.39.83.37,51.406059,-0.4137,Yes,Leeds
118.210.104.151,-33.867851,151.207321,Yes,Edinburgh
122.49.131.17,-31.950001,115.800003,Yes,Sunbury-on-Thames
99.90.48.197,25.774269,-80.193657,Yes,Sydney
41.93.140.12,-20.16194,57.49889,Yes,Subiaco
76.124.145.84,39.952339,-75.163788,Yes,Miami
68.226.89.210,41.82399,-71.412827,Yes,Port Louis
76.175.254.28,33.895851,-118.22007,Yes,Philadelphia
130.209.6.41,55.86515,-4.25763,Yes,Providence
58.110.4.151,-33.933331,151.199997,Yes,Compton
79.179.10.124,32.09174,34.885029,Yes,Lynn
194.176.105.42,52.481419,-1.89983,Yes,Glasgow
117.197.150.180,30.734301,76.793297,Yes,Bridgend
194.9.252.225,51.666672,-0.61667,Yes,Mascot
2.179.49.121,35.835499,51.0103,Yes,Petah Tikva
206.45.134.58,49.892479,-97.14064,Yes,Birmingham
86.151.121.222,52.210579,0.06094,Yes,Chandigarh
149.5.64.141,51.54208,-0.61584,Yes,Amersham
31.109.91.87,55.151009,-2.99889,Yes,Karaj
78.147.100.208,53.792,-1.754,Yes,Winnipeg
82.13.73.33,52.048321,-0.02438,Yes,Coton
84.233.227.250,53.64904,-1.78416,Yes,Farnham Royal
91.178.247.125,50.850449,4.34878,Yes,Langholm
84.28.64.203,52.512501,6.09444,Yes,Bradford
130.88.99.230,53.480949,-2.23743,Yes,Royston
82.40.56.51,53.683311,-1.49768,Yes,Huddersfield
87.112.63.95,53.382969,-1.4659,Yes,Brussels
130.88.172.69,53.480949,-2.23743,Yes,Zwolle
216.49.165.254,34.151527,-118.846497,Yes,Manchester
50.153.107.43,41.770966,-88.15229,Yes,Wakefield
24.145.85.84,32.959049,-81.236504,Yes,Sheffield
216.218.106.29,33.599342,-79.564766,Yes,Manchester
68.58.232.169,42.605591,-83.149933,Yes,Westlake Village
128.23.255.2,32.794071,-79.862587,Yes,Naperville
98.67.182.134,34.195431,-79.762558,Yes,Fairfax
108.230.78.51,32.794071,-79.862587,Yes,Nesmith
207.241.137.116,43.600643,-84.787918,Yes,Troy
75.176.9.85,35.227089,-80.843132,Yes,Mount Pleasant
24.172.228.82,35.227089,-80.843132,Yes,Florence
128.23.242.141,32.785999,-79.947304,Yes,Mount Pleasant
65.212.112.98,40.712791,-74.006065,Yes,Mount Pleasant
84.30.154.22,52.512501,6.09444,Yes,Charlotte
146.176.49.79,55.952061,-3.19648,Yes,Charlotte
82.69.50.235,51.246769,0.60682,Yes,Charleston
98.116.80.180,40.712791,-74.006065,Yes,New York City
128.240.229.65,54.973282,-1.61396,Yes,Birmingham
194.176.105.49,52.481419,-1.89983,Yes,Zwolle
90.195.50.251,51.406059,-0.4137,Yes,Edinburgh
193.173.252.180,52.076672,4.29861,Yes,Leeds
82.31.148.119,53.480949,-2.23743,Yes,New York City
62.136.122.195,51.246769,0.60682,Yes,Newcastle upon Tyne
86.21.110.18,52.922771,-1.47663,Yes,Birmingham
128.243.2.36,52.953602,-1.15047,Yes,Sunbury-on-Thames
90.217.32.154,53.660709,-2.9821,Yes,The Hague
81.106.179.50,52.481419,-1.89983,Yes,Manchester
24.191.70.232,39.776501,-74.862381,Yes,Nottingham
144.15.255.227,45.07938,-93.187202,Yes,Leeds
82.17.142.236,53.73333,-2.66667,Yes,Derby
79.65.25.98,53.480949,-2.23743,Yes,Nottingham
79.68.143.188,51.50853,-0.12574,Yes,Churchtown
202.79.19.56,23.7104,90.40744,Yes,Birmingham
192.43.227.18,-34.928661,138.598633,Yes,Birmingham
69.116.146.170,41.222321,-73.056503,Yes,Jackson
77.103.148.162,50.723598,-3.52751,Yes,Mounds View
86.177.184.239,53.480949,-2.23743,Yes,Walton le Dale
213.106.240.194,50.914398,-1.56553,Yes,Manchester
85.211.116.215,57.613621,-3.09565,Yes,Nottingham
81.170.14.192,51.73333,-2.36667,Yes,London
86.178.168.36,50.626129,-1.1785,Yes,Nottingham
125.24.168.89,13.75,100.51667,Yes,Nottingham
10.2.132.25,0,0,Yes,Dhaka
84.13.251.44,50.723598,-3.52751,Yes,Adelaide
82.19.162.101,51.456249,-0.97113,Yes,Milford
92.22.84.46,50.836731,-0.78003,Yes,Exeter
61.245.168.7,9.66845,80.007423,Yes,Manchester
78.145.39.130,53.41058,-2.97794,Yes,Bartley
193.60.159.61,53.480949,-2.23743,Yes,Fochabers
80.0.191.141,53.480949,-2.23743,Yes,Cambridge
90.196.247.222,52.481419,-1.89983,Yes,Shanklin
92.0.28.153,53.480949,-2.23743,Yes,Bangkok
86.136.143.80,51.246769,0.60682,Yes,-
152.78.130.202,50.90395,-1.40428,Yes,Exeter
112.134.130.248,6.93194,79.847778,Yes,Reading
87.113.106.121,55.952061,-3.19648,Yes,Chichester
122.167.69.13,12.97623,77.603287,Yes,Jaffna
146.199.170.39,51.50853,-0.12574,Yes,Liverpool
100.6.107.250,40.327572,-80.039497,Yes,Manchester
128.40.128.103,51.50853,-0.12574,Yes,Manchester
195.58.80.118,51.50853,-0.12574,Yes,Birmingham
83.216.135.212,55.876141,-4.8895,Yes,Manchester
201.35.135.24,-30.03306,-51.23,Yes,Leeds
194.176.105.142,52.481419,-1.89983,Yes,Southampton
69.246.55.187,35.149529,-90.048981,Yes,Colombo
174.140.116.148,40.518616,-78.405724,Yes,Edinburgh
75.137.103.17,34.852619,-82.394012,Yes,Bengaluru
152.2.239.44,35.927612,-79.040627,Yes,London
98.104.146.94,40.712791,-74.006065,Yes,Bethel Park
136.142.201.191,40.25729,-79.99588,Yes,London
143.107.122.73,-23.547436,-46.637398,Yes,London
132.203.245.9,46.778606,-71.284172,Yes,Wemyss Bay
90.192.166.240,51.50853,-0.12574,Yes,Porto Alegre
218.208.43.121,1.55,110.333328,Yes,Birmingham
98.83.133.149,39.039474,-77.491806,Yes,Memphis
193.134.218.196,46.778519,6.64115,Yes,Altoona
143.53.248.83,53.792,-1.754,Yes,Greenville
86.9.114.236,51.083328,1.18333,Yes,Chapel Hill
137.158.152.209,-33.925838,18.42322,Yes,New York City
196.201.151.67,-8.83682,13.23432,Yes,Gastonville
155.245.118.50,51.85738,0.94534,Yes,Sao Paulo
144.173.177.109,50.723598,-3.52751,Yes,Quebec
77.99.51.233,51.50853,-0.12574,Yes,London
99.158.255.245,29.42412,-98.493629,Yes,Kuching
212.183.140.34,51.40033,-1.32059,Yes,Ashburn
41.205.169.196,5.30943,-4.01972,Yes,Yverdon-les-Bains
81.102.65.160,50.914398,-1.56553,Yes,Bradford
66.31.46.21,42.375099,-71.105614,Yes,Folkestone
24.62.16.21,42.375099,-71.105614,Yes,Cape Town
10.2.132.23,0,0,Yes,-
10.2.132.20,0,0,Yes,Rowhedge
58.173.220.4,-33.867851,151.207321,Yes,Exeter
37.9.61.18,51.50853,-0.12574,Yes,London
68.84.136.21,39.158169,-75.524368,Yes,San Antonio
92.11.238.252,52.18446,-0.68759,Yes,Newbury
82.32.42.22,52.481419,-1.89983,Yes,Abidjan
86.183.180.142,51.246769,0.60682,Yes,Bartley
129.89.206.36,43.034279,-87.915123,Yes,Cambridge
134.220.222.40,52.585468,-2.12296,Yes,Cambridge
121.44.223.191,-31.95224,115.861397,Yes,-
184.60.10.196,44.272621,-121.17392,Yes,-
129.11.56.151,51.246769,0.60682,Yes,Sydney
99.54.70.122,29.762693,-95.362343,Yes,London
70.92.12.152,42.961399,-88.012589,Yes,Dover
81.132.85.148,56.695759,-5.57019,Yes,Warrington
121.72.139.123,-36.866669,174.766663,Yes,Birmingham
222.255.77.113,21.0245,105.841171,Yes,Leeds
82.169.176.145,52.378502,4.89998,Yes,Milwaukee
62.166.204.58,51.442501,3.57361,Yes,Wolverhampton
159.92.194.240,51.50853,-0.12574,Yes,Perth
86.96.226.14,25.78953,55.943199,Yes,Redmond
82.35.103.230,53.480949,-2.23743,Yes,Leeds
208.59.144.13,41.770966,-88.15229,Yes,Edinburgh
209.193.105.194,44.636944,-105.335556,Yes,Houston
80.43.69.85,51.50853,-0.12574,Yes,Greenfield
212.76.95.156,26.30324,50.135281,Yes,Strontian
108.195.149.1,33.808159,-84.170197,Yes,Auckland
74.88.243.32,41.096481,-73.972923,Yes,Hanoi
78.149.240.221,54.413441,-6.44743,Yes,Amsterdam
216.70.20.206,44.9809,-93.226303,Yes,Vlissingen
87.194.172.26,51.509491,-0.59541,Yes,London
168.85.177.4,36.213982,-83.294891,Yes,Ras Al Khaimah
86.182.138.57,53.983528,-2.10459,Yes,Manchester
122.116.88.3,25.038328,121.564362,Yes,Naperville
203.147.39.130,13.75,100.51667,Yes,Gillette
79.77.145.155,53.480949,-2.23743,Yes,Miami
58.186.157.171,21.0245,105.841171,Yes,London
58.65.148.50,33.6007,73.067902,Yes,Dhahran
74.194.21.91,32.515991,-93.732117,Yes,Stone Mountain
150.176.244.143,30.42901,-84.258751,Yes,West Nyack
164.58.135.109,35.475147,-97.503494,Yes,Portadown
195.93.21.10,38.997707,-77.433182,Yes,Minneapolis
24.193.162.198,40.783428,-73.966248,Yes,Slough
146.90.54.246,55.952061,-3.19648,Yes,Birmingham
92.42.127.242,52.18446,-0.68759,Yes,Morristown
173.32.9.217,45.508839,-73.587807,Yes,Gargrave
24.1.238.209,41.760578,-88.320068,Yes,Taipei
94.252.233.99,33.510201,36.291279,Yes,Bangkok
173.86.45.189,41.74868,-77.300529,Yes,Birmingham
111.94.2.36,-6.178306,106.631889,Yes,Manchester
69.23.35.134,38.0373,-84.896622,Yes,Hanoi
121.73.61.164,-41.28664,174.775574,Yes,Rawalpindi
70.109.156.50,43.208141,-71.537567,Yes,Bossier City
91.106.40.85,33.34058,44.400879,Yes,Tallahassee
72.72.38.112,42.358429,-71.059769,Yes,Oklahoma City
193.220.146.195,40.752193,-73.97422,Yes,Dulles
75.75.61.21,37.542091,-77.918892,Yes,Manhattan
67.241.40.55,43.212849,-75.455727,Yes,Edinburgh
67.142.168.25,31.70932,-98.991158,Yes,Warrington
207.47.135.242,50.452145,-104.610451,Yes,Montreal
68.113.108.229,34.60593,-86.983337,Yes,Aurora
168.167.251.206,-24.65451,25.90859,Yes,Damascus
166.166.200.165,40.712791,-74.006065,Yes,Wellsboro
94.0.93.186,54.339008,-1.43243,Yes,Tangerang
147.143.5.96,54.653381,-5.66895,Yes,Lawrenceburg
147.143.57.207,54.653381,-5.66895,Yes,Wellington
82.15.137.209,52.638599,-1.13169,Yes,Concord
2.30.181.248,51.456249,-0.97113,Yes,Baghdad
81.152.13.146,51.50853,-0.12574,Yes,Boston
68.5.113.209,33.640862,-117.603104,Yes,New York City
76.217.182.132,33.66946,-117.823112,Yes,Powhatan
69.229.99.227,38.881008,-77.104279,Yes,Rome
193.62.251.32,55.952061,-3.19648,Yes,Brownwood
81.102.37.108,53.480949,-2.23743,Yes,Regina
193.62.251.24,55.952061,-3.19648,Yes,Decatur
80.195.135.163,50.914398,-1.56553,Yes,Gaborone
90.209.60.81,51.50853,-0.12574,Yes,New York City
81.103.29.13,51.50853,-0.12574,Yes,Northallerton
2.25.11.234,55.952061,-3.19648,Yes,Bangor
87.114.91.198,51.235359,-0.57427,Yes,Bangor
109.154.254.74,54.77676,-1.57566,Yes,Leicester
2.218.124.155,52.406559,-1.51217,Yes,Reading
76.247.222.199,34.05286,-118.243568,Yes,London
67.125.156.235,37.774929,-122.419418,Yes,Rancho Santa Margarita
67.127.165.15,37.774929,-122.419418,Yes,Irvine
99.95.210.150,32.733974,-117.144547,Yes,Arlington
76.95.74.232,33.641129,-117.918671,Yes,Edinburgh
76.174.71.73,33.835289,-117.914497,Yes,Manchester
71.9.89.87,34.2439,-116.911423,Yes,Edinburgh
24.4.36.57,37.774929,-122.419418,Yes,Bartley
76.219.219.11,33.66946,-117.823112,Yes,London
72.192.128.111,32.733974,-117.144547,Yes,London
71.166.18.206,39.290379,-76.61219,Yes,Edinburgh
84.19.106.61,55.6194,-4.65508,Yes,Guildford
60.241.251.91,-33.816669,151.100006,Yes,Durham
12.153.201.126,33.15123,-85.372169,Yes,Coventry
2.100.105.223,51.50853,-0.12574,Yes,Edinburgh
82.9.38.87,50.828381,-0.13947,Yes,Los Angeles
194.66.32.10,52.406559,-1.51217,Yes,San Francisco
172.142.168.80,51.50853,-0.12574,Yes,San Francisco
99.44.117.130,32.733974,-117.144547,Yes,San Diego
24.184.115.74,40.66399,-74.210701,Yes,Costa Mesa
99.21.74.186,34.05286,-118.243568,Yes,Anaheim
50.184.126.195,40.732121,-74.173607,Yes,Big Bear Lake
76.171.210.146,34.019451,-118.491188,Yes,San Francisco
96.229.172.83,34.05286,-118.243568,Yes,Irvine
24.24.216.52,34.201111,-118.597221,Yes,San Diego
76.217.163.126,33.66946,-117.823112,Yes,Baltimore
76.104.60.58,36.846809,-76.285217,Yes,Irvine
47.33.90.87,34.05286,-118.243568,Yes,Ryde
69.234.96.207,33.66946,-117.823112,Yes,Roanoke
146.227.1.15,52.638599,-1.13169,Yes,London
86.183.202.216,52.406559,-1.51217,Yes,Brighton
108.47.235.130,34.05286,-118.243568,Yes,Coventry
71.93.36.210,40.448212,-122.297783,Yes,London
194.83.96.12,54.940948,-3.92784,Yes,San Diego
91.105.245.101,51.906929,8.37854,Yes,Elizabeth
10.2.132.27,0,0,Yes,Los Angeles
185.58.164.44,52.83725,-0.9288,Yes,Newark
185.58.166.44,56.5,-2.96667,Yes,Santa Monica
195.248.193.124,-51.700001,-57.849998,Yes,Los Angeles
82.44.31.19,50.371529,-4.14305,Yes,Canoga Park
82.13.242.92,52.406559,-1.51217,Yes,Irvine
72.216.41.20,30.42131,-87.216911,Yes,Norfolk
86.160.73.16,51.069309,-1.79569,Yes,Los Angeles
176.12.107.137,51.25,0.75,Yes,Irvine
82.40.204.215,52.481419,-1.89983,Yes,Leicester
90.201.199.108,51.620789,-3.94323,Yes,Coventry
5.68.250.104,53.617661,-2.1552,Yes,Los Angeles
90.209.58.57,52.48333,-3.36667,Yes,Anderson
188.222.80.80,52.633331,1.11667,Yes,Castle Douglas
86.149.152.203,51.50853,-0.12574,Yes,Gutersloh
151.224.190.148,54.849998,-5.81667,Yes,-
194.176.105.13,52.481419,-1.89983,Yes,Long Clawson
78.148.222.182,51.546188,-0.47961,Yes,Dundee
188.223.100.0,51.533329,0.08333,Yes,Stanley
86.27.19.12,51.246769,0.60682,Yes,Plymouth
86.155.169.126,51.557968,-1.78116,Yes,Coventry
194.176.105.135,52.481419,-1.89983,Yes,Pensacola
80.5.152.51,52.210579,0.06094,Yes,Dundee
109.175.252.9,51.406059,0.01519,Yes,Salisbury
86.23.124.215,53.003819,-2.28741,Yes,Kent
194.176.105.147,52.481419,-1.89983,Yes,Birmingham
2.25.6.248,51.259998,-2.1875,Yes,Swansea
86.132.109.0,51.50853,-0.12574,Yes,Rochdale
62.253.15.202,50.914398,-1.56553,Yes,Mochdre
68.110.77.228,33.44838,-112.074043,Yes,Colton
81.136.94.106,55.97596,-4.05916,Yes,London
86.186.140.159,52.720589,-0.63068,Yes,Larne
121.223.4.185,-26.474489,152.951355,Yes,Birmingham
78.25.236.93,55.934639,-4.6895,Yes,Uxbridge
62.7.190.192,51.946121,-3.38887,Yes,Edinburgh
90.244.229.135,52.475201,1.75159,Yes,Barking
90.205.204.29,51.406059,-0.4137,Yes,Leeds
86.150.190.236,51.81665,-0.81458,Yes,Swindon
86.190.10.173,53.884892,-1.61641,Yes,Birmingham
81.129.238.96,57.425869,-2.24002,Yes,Coton
90.212.172.236,53.480949,-2.23743,Yes,Bromley
109.144.197.108,53.792,-1.754,Yes,Keele
176.26.6.134,51.963749,1.3511,Yes,Birmingham
90.198.84.183,55.73595,-3.83019,Yes,Westbury
90.196.4.117,51.50853,-0.12574,Yes,London
90.214.180.2,54.542648,-0.98139,Yes,Birmingham
176.24.33.89,53.95763,-1.08271,Yes,Bartley
2.26.162.182,52.953602,-1.15047,Yes,Phoenix
188.223.98.66,51.50853,-0.12574,Yes,Kilsyth
109.156.174.50,51.246769,0.60682,Yes,Greetham
89.242.180.209,52.922771,-1.47663,Yes,Eumundi
94.1.123.251,51.50853,-0.12574,Yes,Port Glasgow
77.97.58.5,51.50853,-0.12574,Yes,Brecon
86.182.121.189,53.480949,-2.23743,Yes,Lowestoft
176.250.1.8,53.22683,-0.53792,Yes,Sunbury-on-Thames
86.14.172.237,54.51181,-6.07029,Yes,Aylesbury
92.237.91.140,53.792,-1.754,Yes,Bramhope
82.16.186.173,52.953602,-1.15047,Yes,Methlick
90.222.105.32,54.700001,-3.26667,Yes,Manchester
194.176.105.138,52.481419,-1.89983,Yes,Edinburgh
92.28.137.127,51.84177,1.2188,Yes,Bradford
213.1.37.51,51.335758,1.41552,Yes,Felixstowe
86.137.90.190,52.210579,0.06094,Yes,Dundee
2.219.33.228,56.11903,-3.93682,Yes,Carluke
92.22.45.90,51.849998,-2.26667,Yes,London
31.53.170.105,53.382969,-1.4659,Yes,Boosbeck
2.219.24.43,52.979542,-0.96563,Yes,Birmingham
94.171.8.178,52.378502,4.89998,Yes,York
2.222.134.198,52.068691,-0.60884,Yes,Nottingham
82.28.180.207,53.08157,-1.24375,Yes,London
86.180.110.121,53.366669,0.01667,Yes,Leeds
90.198.119.101,51.406059,-0.4137,Yes,Derby
92.28.130.92,51.319031,-0.55893,Yes,London
86.11.237.40,53.382969,-1.4659,Yes,London
82.25.170.66,53.382969,-1.4659,Yes,Manchester
81.152.138.12,53.572361,-2.69316,Yes,Lincoln
86.11.237.64,53.382969,-1.4659,Yes,Knockmore
86.7.7.33,52.25,-0.88333,Yes,Edinburgh
86.25.219.131,55.868591,-4.55201,Yes,Bradford
109.175.158.93,52.481419,-1.89983,Yes,Nottingham
92.40.144.155,51.50853,-0.12574,Yes,Sunderland
188.222.33.60,55.01646,-1.44925,Yes,Birmingham
86.136.22.11,53.577808,-2.7209,Yes,Kirby Cross
80.1.38.74,52.210579,0.06094,Yes,Ramsgate
90.217.69.26,53.41058,-2.97794,Yes,Edinburgh
90.221.70.161,51.48,-3.18,Yes,Coton
82.42.53.226,55.76667,-4.03333,Yes,Stirling
81.156.195.73,51.671089,-1.28278,Yes,Hempstead
78.146.103.255,51.50853,-0.12574,Yes,Sheffield
82.40.142.171,53.792,-1.754,Yes,East Bridgford
176.250.15.97,52.481419,-1.89983,Yes,Amsterdam
188.223.150.125,52.523232,-1.46523,Yes,Cranfield
95.146.221.239,51.73333,-2.36667,Yes,Annesley
86.180.6.129,55.033329,-6.75,Yes,Edinburgh
77.100.246.141,55.15004,-1.60332,Yes,Keddington
80.195.56.127,52.481419,-1.89983,Yes,Sunbury-on-Thames
86.30.210.55,53.22683,-0.53792,Yes,Woking
2.122.126.11,55.86515,-4.25763,Yes,Sheffield
82.16.184.188,52.25,-0.88333,Yes,Sheffield
2.123.186.99,52.481419,-1.89983,Yes,Shevington
92.22.12.247,55.86515,-4.25763,Yes,Sheffield
90.202.187.204,51.50853,-0.12574,Yes,Northampton
82.40.152.81,52.481419,-1.89983,Yes,Houston
193.62.251.38,55.952061,-3.19648,Yes,Birmingham
86.11.239.95,53.382969,-1.4659,Yes,London
86.140.136.94,53.382969,-1.4659,Yes,North Shields
90.207.163.29,52.60289,0.37899,Yes,Appley Bridge
92.2.6.11,51.621269,0.30556,Yes,Edinburgh
90.204.253.254,53.003819,-2.28741,Yes,Edinburgh
86.14.182.29,54.583328,-5.93333,Yes,Edinburgh
86.11.232.35,52.481419,-1.89983,Yes,Coton
176.253.237.50,53.480949,-2.23743,Yes,Liverpool
193.62.251.36,55.952061,-3.19648,Yes,Long Clawson
90.208.244.23,55.952061,-3.19648,Yes,Cardiff
46.208.153.207,50.723598,-3.52751,Yes,Hamilton
95.145.183.188,55.86515,-4.25763,Yes,Abingdon
81.131.109.128,53.533329,-2.71667,Yes,London
82.11.53.240,50.914398,-1.56553,Yes,Bradford
81.159.201.163,50.723598,-3.52751,Yes,Birmingham
31.52.182.254,53.95763,-1.08271,Yes,Nuneaton
92.40.254.126,51.522789,-0.71986,Yes,Cambridge
81.152.130.204,57.89872,-5.16039,Yes,Ringsend
90.214.179.106,50.96479,-2.58047,Yes,Choppington
176.250.68.146,56.11903,-3.93682,Yes,Birmingham
92.40.253.194,51.522789,-0.71986,Yes,Lincoln
88.104.212.233,51.235359,-0.57427,Yes,Glasgow
176.250.100.146,51.557968,-1.78116,Yes,Northampton
2.219.33.15,56.11903,-3.93682,Yes,Edinburgh
178.98.16.208,53.22683,-0.53792,Yes,Birmingham
94.1.202.218,52.523232,-1.46523,Yes,Glasgow
109.144.183.128,54.066669,-2.83333,Yes,London
5.151.49.88,51.416672,-2.85,Yes,Edinburgh
90.203.207.194,51.620789,-3.94323,Yes,Birmingham
93.97.154.97,51.509491,-0.59541,Yes,Edinburgh
109.175.253.23,53.480949,-2.23743,Yes,Edinburgh
92.40.143.209,52.481419,-1.89983,Yes,Sheffield
82.19.215.185,52.481419,-1.89983,Yes,Sheffield
86.30.231.143,54.44709,-6.387,Yes,Downham Market
81.101.49.222,56.48333,-2.75,Yes,Brentwood
109.175.158.64,52.481419,-1.89983,Yes,Keele
109.145.174.248,52.347092,0.21852,Yes,Belfast
81.141.114.126,51.50853,-0.12574,Yes,Birmingham
92.26.120.52,53.41058,-2.97794,Yes,Manchester
86.162.92.162,55.60751,-4.32416,Yes,Edinburgh
87.114.11.22,53.95763,-1.08271,Yes,Edinburgh
194.176.105.153,52.481419,-1.89983,Yes,Exeter
109.158.105.255,52.515018,1.65267,Yes,Glasgow
86.171.76.187,52.406559,-1.51217,Yes,Upholland
90.197.51.45,51.50853,-0.12574,Yes,Bartley
193.62.251.19,55.952061,-3.19648,Yes,Exeter
90.213.243.205,50.798988,-1.09125,Yes,York
31.54.244.181,50.723598,-3.52751,Yes,Maidenhead
2.126.121.255,56.11903,-3.93682,Yes,Ullapool
81.140.149.209,51.587742,-2.99835,Yes,Trent
202.125.202.49,22.285521,114.157692,Yes,Stirling
14.198.119.112,22.285521,114.157692,Yes,Maidenhead
82.7.159.188,53.64904,-1.78416,Yes,Guildford
92.14.202.94,53.382969,-1.4659,Yes,Swindon
151.224.103.64,53.22683,-0.53792,Yes,Stirling
2.98.33.181,53.480949,-2.23743,Yes,Lincoln
86.151.163.48,53.683311,-1.49768,Yes,Edinburgh
81.99.109.178,51.50853,-0.12574,Yes,Edinburgh
92.16.189.124,51.587742,-2.99835,Yes,Edinburgh
90.204.254.71,52.710091,-2.75208,Yes,Nuneaton
217.44.26.52,54.522442,-1.61414,Yes,Lancaster
81.152.42.230,52.922771,-1.47663,Yes,Kenn
188.223.10.176,50.828381,-0.13947,Yes,Swansea
92.15.53.140,51.821659,-1.2886,Yes,Slough
90.204.5.80,51.587742,-2.99835,Yes,Manchester
161.112.232.102,53.382969,-1.4659,Yes,Birmingham
67.44.160.65,39.63332,-105.317207,Yes,Birmingham
24.184.134.112,39.776501,-74.862381,Yes,Craigavon
99.120.180.129,36.15398,-95.992783,Yes,Edinburgh
97.73.64.149,38.303181,-77.460541,Yes,Barry
72.161.2.109,33.44838,-112.074043,Yes,Birmingham
24.0.146.214,39.947819,-74.911682,Yes,Stretham
99.136.91.36,32.72541,-97.320847,Yes,London
204.87.86.50,35.511951,-97.502563,Yes,Liverpool
69.128.211.97,44.916668,-70.071114,Yes,Newmilns
165.214.11.79,33.952599,-84.549927,Yes,York
72.171.24.125,42.008331,-91.644073,Yes,Birmingham
74.67.115.86,42.438702,-73.125381,Yes,Somerleyton
24.106.9.194,34.05286,-118.243568,Yes,Coventry
68.59.135.204,35.045631,-85.309677,Yes,London
70.128.115.173,36.15398,-95.992783,Yes,Edinburgh
24.98.176.81,33.749001,-84.387978,Yes,Portsmouth
74.233.29.32,25.774269,-80.193657,Yes,Exeter
71.23.20.137,47.561195,-122.153412,Yes,Stirling
76.224.156.177,39.099731,-94.578568,Yes,Newport
66.196.56.166,40.925011,-98.34201,Yes,Hong Kong
24.240.74.248,42.960831,-89.469841,Yes,Hong Kong
162.129.251.42,39.301182,-76.569687,Yes,Huddersfield
152.133.7.129,32.776569,-79.930923,Yes,Sheffield
41.72.105.131,-12.79614,28.247669,Yes,Lincoln
182.185.115.19,33.899681,70.100121,Yes,Manchester
130.43.159.58,50.371529,-4.14305,Yes,Wakefield
86.162.56.37,52.3582,0.26801,Yes,London
80.2.39.217,53.95763,-1.08271,Yes,Newport
41.60.21.195,-15.40669,28.28713,Yes,Carluke
51.9.76.146,51.557968,-1.78116,Yes,Shrewsbury
160.9.42.77,51.246769,0.60682,Yes,Low Coniscliffe
92.1.225.117,54.653381,-5.66895,Yes,Derby
190.213.6.211,10.66617,-61.516571,Yes,Brighton
41.72.102.14,-14.24264,31.3253,Yes,Kidlington
86.163.25.154,52.18446,-0.68759,Yes,Newport
90.217.241.58,53.382969,-1.4659,Yes,Sheffield
41.72.117.58,-15.40669,28.28713,Yes,Evergreen
31.205.39.0,53.480949,-2.23743,Yes,Jackson
80.87.76.14,5.55602,-0.1969,Yes,Tulsa
87.115.94.193,52.18446,-0.68759,Yes,Fredericksburg
31.205.39.1,53.480949,-2.23743,Yes,Phoenix
104.218.218.82,13.9957,-61.006142,Yes,Mount Laurel
95.177.63.98,52.922771,-1.47663,Yes,Fort Worth
71.84.193.7,34.1064,-117.593109,Yes,Oklahoma City
2.120.171.252,51.522789,-0.71986,Yes,New Portland
217.35.242.130,50.828381,-0.13947,Yes,Marietta
67.176.205.4,41.64753,-88.089508,Yes,Cedar Rapids
92.7.84.185,57.650002,-3.33333,Yes,Hinsdale
82.19.178.226,53.480949,-2.23743,Yes,Los Angeles
77.97.175.39,51.73333,-2.36667,Yes,Chattanooga
94.192.209.188,52.452091,1.6937,Yes,Tulsa
90.193.228.77,53.480949,-2.23743,Yes,Atlanta
86.148.58.56,52.374729,0.52936,Yes,Miami
86.144.162.221,52.922771,-1.47663,Yes,Bellevue
86.21.11.90,50.914398,-1.56553,Yes,Kansas City
10.2.132.29,0,0,Yes,Grand Island
10.2.132.21,0,0,Yes,Fitchburg
94.173.235.162,51.455231,-2.59665,Yes,Baltimore
94.6.33.138,52.585468,-2.12296,Yes,Charleston
81.135.244.2,51.50853,-0.12574,Yes,Kitwe
82.1.53.81,52.953602,-1.15047,Yes,Parachinar
109.246.49.135,28.805269,-97.003601,Yes,Plymouth
92.40.62.214,53.382969,-1.4659,Yes,Barway
151.249.72.76,53.95763,-1.08271,Yes,York
86.168.103.208,52.638599,-1.13169,Yes,Lusaka
128.243.175.102,52.953602,-1.15047,Yes,Swindon
81.99.38.105,54.576229,-1.23483,Yes,Leeds
78.149.105.193,52.953602,-1.15047,Yes,Bangor
86.162.177.173,53.480949,-2.23743,Yes,Port of Spain
78.144.163.207,54.583328,-5.93333,Yes,Petauke
128.243.236.10,52.953602,-1.15047,Yes,Warrington
82.8.44.68,52.953602,-1.15047,Yes,Sheffield
87.113.158.129,51.456249,-0.97113,Yes,Lusaka
90.199.19.113,53.480949,-2.23743,Yes,Manchester
86.1.217.81,53.382969,-1.4659,Yes,Accra
87.115.199.244,50.828381,-0.13947,Yes,Warrington
78.151.28.83,53.341839,-2.635,Yes,Manchester
86.14.83.81,51.03833,-2.27611,Yes,Castries
80.6.113.103,52.210579,0.06094,Yes,Derby
86.148.164.12,51.73333,-2.36667,Yes,Derby
128.243.220.22,52.953602,-1.15047,Yes,Rancho Cucamonga
88.111.113.81,55.86515,-4.25763,Yes,Maidenhead
82.7.31.17,50.828381,-0.13947,Yes,Brighton
195.137.68.18,53.480949,-2.23743,Yes,Romeoville
84.70.176.33,52.18446,-0.68759,Yes,Elgin
71.194.66.193,41.473091,-87.061142,Yes,Manchester
86.31.115.227,50.720482,-1.8795,Yes,Cambridge
195.93.21.33,38.997707,-77.433182,Yes,Carlton Colville
146.191.25.12,55.76667,-4.03333,Yes,Manchester
67.159.139.220,38.752121,-121.28801,Yes,Eriswell
74.99.180.34,40.273701,-76.884422,Yes,Derby
64.134.243.214,38.303181,-77.460541,Yes,Bartley
98.235.216.39,40.03788,-76.305511,Yes,-
174.54.236.177,41.40897,-75.662407,Yes,-
174.55.110.114,40.7934,-77.860001,Yes,-
64.134.102.156,39.333118,-82.982399,Yes,Bristol
76.98.243.126,39.952339,-75.163788,Yes,Wolverhampton
73.130.9.77,40.608429,-75.490181,Yes,London
174.59.227.32,40.03788,-76.305511,Yes,Nottingham
68.3.155.202,33.44838,-112.074043,Yes,Victoria
73.211.43.100,41.68338,-86.250008,Yes,Sheffield
72.201.58.211,33.44838,-112.074043,Yes,York
67.175.28.98,41.832809,-87.928947,Yes,Leicester
67.236.245.240,40.416698,-86.87529,Yes,Nottingham
67.176.143.95,41.770966,-88.15229,Yes,Middlesbrough
76.235.162.111,42.29171,-85.587227,Yes,Nottingham
24.12.48.23,39.768379,-86.158043,Yes,Manchester
67.236.144.114,39.768379,-86.158043,Yes,Belfast
64.109.53.170,38.881008,-77.104279,Yes,Nottingham
74.137.192.11,37.990082,-84.179649,Yes,Nottingham
71.120.57.138,41.68338,-86.250008,Yes,Reading
71.239.113.94,41.770966,-88.15229,Yes,Manchester
204.130.228.100,45.535748,-122.714966,Yes,Sheffield
184.53.33.120,39.768379,-86.158043,Yes,Brighton
216.249.83.194,39.165321,-86.52639,Yes,Daresbury
70.194.5.175,40.712791,-74.006065,Yes,Gillingham
75.39.239.161,41.557259,-87.665604,Yes,Coton
98.228.145.14,41.58337,-87.500038,Yes,Cambridge
98.215.229.105,41.416981,-87.365311,Yes,Nottingham
98.220.17.145,41.557259,-87.665604,Yes,Glasgow
24.1.159.85,41.593369,-87.346428,Yes,Brighton
67.162.5.41,42.314739,-88.4487,Yes,Manchester
216.176.136.201,41.593369,-87.346428,Yes,Warrington
69.69.243.187,39.768379,-86.158043,Yes,Valparaiso
71.194.249.220,39.947819,-74.911682,Yes,Bournemouth
71.239.147.196,41.593369,-87.346428,Yes,Dulles
67.176.139.215,41.770966,-88.15229,Yes,Hamilton
74.143.152.226,39.613087,-104.883926,Yes,Roseville
71.120.185.226,36.852928,-75.977982,Yes,Harrisburg
68.156.159.10,30.40576,-86.618843,Yes,Fredericksburg
104.169.155.12,43.153236,-77.607857,Yes,Lancaster
216.176.158.113,41.339695,-87.198097,Yes,Scranton
98.193.116.78,41.593369,-87.346428,Yes,State College
98.206.109.203,41.770966,-88.15229,Yes,Chillicothe
96.248.142.59,41.68338,-86.250008,Yes,Philadelphia
76.16.88.160,42.258629,-87.840622,Yes,Allentown
75.4.145.59,47.682899,-122.120903,Yes,Lancaster
76.29.29.224,42.099751,-87.780899,Yes,Phoenix
76.234.39.141,41.710869,-87.75811,Yes,South Bend
64.53.160.26,37.974758,-87.555847,Yes,Phoenix
12.176.247.150,41.532261,-87.255043,Yes,Oak Brook
24.12.81.28,41.593369,-87.346428,Yes,Lafayette
76.208.56.10,29.954651,-90.075073,Yes,Naperville
67.236.83.124,41.1306,-85.12886,Yes,Kalamazoo
24.15.37.221,41.58337,-87.500038,Yes,Indianapolis
76.197.180.71,47.603909,-122.329842,Yes,Indianapolis
76.234.36.92,41.710869,-87.75811,Yes,Arlington
99.145.176.134,38.637459,-90.237289,Yes,Winchester
24.1.132.162,42.348358,-87.884239,Yes,South Bend
67.162.119.176,42.190022,-87.908401,Yes,Naperville
69.245.233.175,41.770966,-88.15229,Yes,Portland
70.131.96.197,36.747311,-95.98082,Yes,Indianapolis
64.53.136.57,42.03336,-88.083412,Yes,Bloomington
45.40.84.177,41.431828,-87.984642,Yes,New York City
71.115.14.146,37.553761,-77.460258,Yes,Homewood
75.207.193.56,41.770966,-88.15229,Yes,Hammond
24.1.132.4,42.348358,-87.884239,Yes,Crown Point
99.135.95.1,41.832809,-87.928947,Yes,Homewood
75.4.157.161,47.682899,-122.120903,Yes,Gary
68.74.65.205,41.832809,-87.928947,Yes,Woodstock
69.47.182.113,42.037251,-88.281189,Yes,Gary
77.31.90.20,31.33176,37.342819,Yes,Indianapolis
68.2.213.194,33.44838,-112.074043,Yes,Mount Laurel
24.58.242.192,42.452862,-75.063766,Yes,Gary
207.35.220.29,43.79665,-79.588303,Yes,Naperville
86.144.62.29,51.049999,-4.05,Yes,Greenwood Village
92.21.205.84,51.406059,-0.4137,Yes,Virginia Beach
79.68.96.250,52.573639,-0.24777,Yes,Fort Walton Beach
78.150.181.173,51.587742,-2.99835,Yes,Rochester
80.168.88.50,51.50853,-0.12574,Yes,Hebron
203.210.5.98,22.285521,114.157692,Yes,Gary
195.93.21.1,38.997707,-77.433182,Yes,Naperville
193.63.26.120,51.50853,-0.12574,Yes,South Bend
82.0.176.224,52.638599,-1.13169,Yes,Lake Forest
75.120.134.98,39.61721,-104.950813,Yes,Redmond
109.76.70.1,54.477821,-8.28094,Yes,Northfield
46.7.241.64,52.664719,-8.62306,Yes,Oak Lawn
178.167.192.69,53.73333,-7.8,Yes,Evansville
188.141.98.84,52.664719,-8.62306,Yes,Hobart
86.42.212.48,52.674721,-6.2925,Yes,Gary
109.255.117.114,52.258331,-7.11194,Yes,New Orleans
93.107.24.232,53.718891,-6.34778,Yes,Fort Wayne
178.167.252.189,53.34399,-6.26719,Yes,Hammond
83.70.42.238,53.849998,-9.3,Yes,Seattle
90.195.138.40,53.73333,-2.66667,Yes,Oak Lawn
90.252.90.165,51.246769,0.60682,Yes,Saint Louis
68.77.146.227,33.960949,-83.377937,Yes,Park City
109.78.213.186,54.25,-6.96667,Yes,Lincolnshire
89.106.141.1,52.258331,-7.11194,Yes,Naperville
2.217.205.122,52.952991,-0.897,Yes,Bartlesville
176.253.148.20,51.416672,-2.85,Yes,Schaumburg
90.210.13.79,51.246769,0.60682,Yes,Manhattan
81.159.186.46,57.143688,-2.09814,Yes,Richmond
109.159.46.106,51.48,-3.18,Yes,Naperville
86.149.181.48,53.64904,-1.78416,Yes,Park City
82.132.249.192,51.509491,-0.59541,Yes,Oak Brook
82.9.133.253,52.57682,-1.31536,Yes,Redmond
94.3.70.213,51.406059,-0.4137,Yes,Oak Brook
86.16.143.27,51.75,-0.33333,Yes,Elgin
86.140.129.159,54.77676,-1.57566,Yes,Qurayyat
217.44.100.189,51.50853,-0.12574,Yes,Phoenix
92.6.127.238,51.406059,0.01519,Yes,Oneonta
86.141.31.251,53.792,-1.754,Yes,Vaughan
217.42.235.161,56.11903,-3.93682,Yes,Bishops Tawton
92.0.103.32,51.246769,0.60682,Yes,Sunbury-on-Thames
94.197.23.98,53.480949,-2.23743,Yes,Peterborough
77.97.38.153,53.792,-1.754,Yes,Newport
109.76.90.230,53.342499,-7.61389,Yes,London
90.208.152.80,53.480949,-2.23743,Yes,Hong Kong
77.98.237.154,51.50853,-0.12574,Yes,Dulles
86.161.25.147,56.55798,-3.576,Yes,London
2.30.163.54,54.686111,-1.2125,Yes,Leicester
2.26.227.219,56.11903,-3.93682,Yes,Greenwood Village
90.204.238.47,54.576229,-1.23483,Yes,Bundoran
86.145.10.121,50.798988,-1.09125,Yes,Limerick
78.86.249.108,51.50853,-0.12574,Yes,Longford
90.200.214.178,55.01646,-1.44925,Yes,Limerick
2.121.143.1,50.828381,-0.13947,Yes,Gorey
86.146.84.54,52.18446,-0.68759,Yes,Waterford
62.252.201.238,50.914398,-1.56553,Yes,Drogheda
88.98.42.69,53.617661,-2.1552,Yes,Dublin
92.22.53.32,51.455231,-2.59665,Yes,Castlebar
81.155.254.119,52.820702,0.7111,Yes,Walton le Dale
86.133.222.215,51.88921,0.90421,Yes,Leeds
86.152.191.222,50.720482,-1.8795,Yes,Athens
92.18.10.121,50.798988,-1.09125,Yes,Monaghan
91.105.218.38,52.505001,4.95972,Yes,Waterford
90.203.80.75,51.50853,-0.12574,Yes,Aslockton
92.26.189.29,53.480949,-2.23743,Yes,Kenn
146.191.241.130,55.46273,-4.63393,Yes,Leeds
81.131.72.188,52.376751,1.1091,Yes,Aberdeen
89.195.202.244,51.455231,-2.59665,Yes,Cardiff
90.213.143.220,53.792,-1.754,Yes,Huddersfield
62.252.63.201,51.40033,-1.32059,Yes,New York City
92.25.46.123,51.553059,-0.3023,Yes,Slough
80.7.140.43,51.406059,-0.4137,Yes,Earl Shilton
90.216.211.122,52.481419,-1.89983,Yes,Sunbury-on-Thames
173.21.211.244,43.66663,-92.97464,Yes,Saint Albans
174.219.129.126,45.576069,-92.482697,Yes,Durham
192.198.1.72,44.811352,-91.498489,Yes,London
50.33.21.122,44.666908,-93.6269,Yes,Bromley
174.198.11.176,40.121498,-75.339897,Yes,Bradford
50.83.197.249,44.021629,-92.469902,Yes,Stirling
206.9.240.202,44.458302,-93.161598,Yes,Leeds
66.216.225.111,44.021629,-92.469902,Yes,Manchester
71.87.104.156,43.884411,-91.235138,Yes,Bradford
24.197.195.65,44.021629,-92.469902,Yes,Clara
203.1.16.10,-34.424,150.893448,Yes,Manchester
64.12.116.67,40.731323,-73.990089,Yes,London
68.118.237.175,42.165916,-71.891594,Yes,Birnam
129.176.151.10,44.036819,-92.491203,Yes,Hartlepool
184.158.51.68,44.625278,-91.000557,Yes,Stirling
81.106.183.227,51.77655,0.11158,Yes,Middlesbrough
194.176.105.8,52.481419,-1.89983,Yes,Portsmouth
66.66.200.218,43.048119,-76.147423,Yes,London
219.89.250.132,-36.866669,174.766663,Yes,North Shields
96.42.232.158,44.083851,-93.226044,Yes,Brighton
5.198.8.120,53.744598,-0.33525,Yes,Warrington
86.9.74.82,51.553059,-0.3023,Yes,Bartley
12.29.122.130,40.395634,-74.110588,Yes,Rochdale
86.145.181.214,55.316669,-4.63333,Yes,Bristol
89.100.212.103,53.34399,-6.26719,Yes,East Rudham
31.114.161.93,51.455231,-2.59665,Yes,Colchester
94.173.17.28,52.481419,-1.89983,Yes,Bournemouth
198.133.139.165,39.084,-77.152763,Yes,Portsmouth
122.109.98.109,-31.95224,115.861397,Yes,Purmerend
99.111.3.65,41.573372,-87.784492,Yes,London
99.38.135.55,33.66946,-117.823112,Yes,Manchester
92.22.64.152,55.130611,-1.59319,Yes,Ayr
92.235.34.25,52.664719,-8.62306,Yes,Ayr
82.69.104.202,50.828381,-0.13947,Yes,Diss
93.96.198.76,51.50853,-0.12574,Yes,Bristol
193.62.251.21,55.952061,-3.19648,Yes,Bradford
78.137.170.46,53.34399,-6.26719,Yes,Newbury
86.46.113.43,53.34399,-6.26719,Yes,Brent
99.141.123.64,47.603909,-122.329842,Yes,Sunbury-on-Thames
75.207.40.34,40.712791,-74.006065,Yes,Birmingham
69.47.158.160,37.944489,-87.405289,Yes,Ayr
90.211.100.162,54.946331,-1.91723,Yes,Ayr
64.53.254.233,42.03336,-88.083412,Yes,Austin
99.28.113.9,41.710869,-87.75811,Yes,Luck
99.61.203.59,41.710869,-87.75811,Yes,Eau Claire
69.209.215.235,38.881008,-77.104279,Yes,Jordan
67.173.98.80,40.116421,-88.243378,Yes,Norristown
98.206.94.129,41.770966,-88.15229,Yes,Rochester
166.222.177.220,35.96064,-83.920738,Yes,Northfield
24.152.216.28,40.95842,-75.974648,Yes,Rochester
90.192.79.157,53.382969,-1.4659,Yes,Onalaska
76.17.174.122,39.947819,-74.911682,Yes,Rochester
99.145.210.76,30.294689,-81.393143,Yes,Wollongong
76.197.182.116,47.603909,-122.329842,Yes,New York City
24.14.99.71,41.800861,-87.937012,Yes,North Oxford
72.69.6.214,40.670197,-73.838318,Yes,Rochester
69.245.205.82,41.770966,-88.15229,Yes,Fairchild
83.54.21.23,41.38879,2.15899,Yes,Harlow
212.219.119.130,50.583328,-3.55,Yes,Birmingham
84.93.174.191,52.481419,-1.89983,Yes,Syracuse
90.195.184.102,52.67659,-2.44926,Yes,Auckland
195.93.21.71,38.997707,-77.433182,Yes,Owatonna
94.6.136.142,51.50853,-0.12574,Yes,Hull
92.238.150.215,56.5,-2.96667,Yes,Brent
193.62.43.210,53.200001,-3.86667,Yes,Middletown
82.203.3.9,51.294239,-0.75565,Yes,Crosshill
86.140.144.4,57.116669,-7.36667,Yes,Dublin
178.250.251.78,24.191669,55.760559,Yes,Bristol
89.242.206.76,53.41058,-2.97794,Yes,Birmingham
90.209.15.83,51.50853,-0.12574,Yes,Rockville
95.149.219.169,52.481419,-1.89983,Yes,Perth
92.239.60.127,52.67659,-2.44926,Yes,Tinley Park
178.250.251.86,24.191669,55.760559,Yes,Irvine
5.71.115.221,51.246769,0.60682,Yes,Bedlington
194.81.189.44,54.066669,-2.83333,Yes,Limerick
94.194.29.250,52.18446,-0.68759,Yes,Brighton
94.192.145.129,51.246769,0.60682,Yes,London
2.221.12.102,55.86515,-4.25763,Yes,Edinburgh
86.155.117.39,50.966671,-1.35,Yes,Reading
90.211.223.202,52.481419,-1.89983,Yes,Dublin
92.239.212.158,50.914398,-1.56553,Yes,Dublin
86.159.35.216,52.481419,-1.89983,Yes,Seattle
82.39.229.204,55.952061,-3.19648,Yes,Derby
86.142.2.134,52.88686,-3.25333,Yes,New York City
109.151.23.93,52.406231,0.11772,Yes,Newburgh
74.4.39.185,34.746479,-92.289589,Yes,Stocksfield
217.52.71.242,30.06263,31.24967,Yes,Schaumburg
213.6.213.63,32.068779,35.152859,Yes,Oak Lawn
109.154.146.48,52.18446,-0.68759,Yes,Oak Lawn
72.38.40.220,43.331169,-79.806076,Yes,Birmingham
10.2.132.24,0,0,Yes,Arlington
80.218.233.27,47.366669,8.55,Yes,Champaign
24.207.229.63,38.70116,-90.362343,Yes,Naperville
86.53.6.10,53.480949,-2.23743,Yes,Knoxville
90.242.180.23,52.431789,0.23861,Yes,Hazleton
86.129.252.206,52.67197,0.18831,Yes,Sheffield
91.125.233.65,53.382969,-1.4659,Yes,Mount Laurel
86.142.106.196,55.849998,-2.13333,Yes,Jacksonville Beach
216.81.4.142,45.40242,-75.653954,Yes,Seattle
41.66.253.136,5.55602,-0.1969,Yes,Hinsdale
117.192.195.79,30.79722,76.917221,Yes,Ozone Park
213.107.25.92,50.914398,-1.56553,Yes,Naperville
88.105.197.22,53.95763,-1.08271,Yes,Barcelona
90.216.84.62,53.480949,-2.23743,Yes,Luton
94.168.187.143,51.922501,4.47917,Yes,Luton
81.129.179.52,51.994148,-3.79637,Yes,Luton
86.156.33.22,57.466671,-4.05,Yes,Luton
86.31.12.245,53.792,-1.754,Yes,Luton
76.23.80.188,36.834839,-81.514839,Yes,Luton
50.240.26.101,44.046242,-123.022034,Yes,Luton
10.2.132.16,0,0,Yes,Luton
14.99.193.87,19.075975,72.87738,Yes,Luton
81.23.48.85,53.480949,-2.23743,Yes,Luton
88.200.96.129,46.051079,14.50513,Yes,Luton
81.157.134.55,51.849998,-2.26667,Yes,Luton
2.102.86.69,55.952061,-3.19648,Yes,Luton
77.100.213.29,51.50853,-0.12574,Yes,Luton
2.121.31.57,50.828381,-0.13947,Yes,Luton
86.23.48.233,51.50853,-0.12574,Yes,Luton
92.226.97.230,53.575321,10.01534,Yes,Birmingham
92.20.194.71,51.67598,-4.13667,Yes,Telford
94.30.51.54,50.966671,-1.35,Yes,Dulles
89.241.80.244,51.359081,1.43938,Yes,London
86.179.145.156,51.246769,0.60682,Yes,Dundee
176.252.91.90,52.481419,-1.89983,Yes,Llanbedr-y-cennin
86.156.148.181,52.536789,0.97407,Yes,Farnborough
79.77.199.19,51.75,-0.33333,Yes,Pollachar
90.199.228.192,53.73333,-2.66667,Yes,Al Ain
86.28.101.176,50.914398,-1.56553,Yes,Llanbedr-y-cennin
81.152.198.153,52.481419,-1.89983,Yes,Liverpool
188.29.166.87,51.522789,-0.71986,Yes,London
78.145.71.135,51.406059,-0.4137,Yes,Birmingham
86.141.127.187,52.573009,1.73069,Yes,Telford
217.35.79.70,58.592709,-3.52594,Yes,Al Ain
92.23.33.215,54.625832,-1.6442,Yes,Leeds
109.150.70.135,52.026909,0.96529,Yes,Lancaster
82.6.149.54,51.671089,-1.28278,Yes,Warrington
86.137.118.169,55.01646,-1.44925,Yes,Leeds
82.24.161.155,54.576229,-1.23483,Yes,Glasgow
86.144.176.40,52.020531,-2.03478,Yes,Eastleigh
90.218.164.153,57.675701,-2.96238,Yes,Birmingham
92.14.191.116,54.83247,-1.82919,Yes,Bartley
78.150.10.232,50.90395,-1.40428,Yes,Birmingham
81.132.245.235,56.829788,-2.28641,Yes,Edinburgh
77.99.21.249,51.204342,-2.17873,Yes,Llanarmon Dyffryn-Ceiriog
86.152.85.254,52.481419,-1.89983,Yes,Mepal
81.140.29.99,51.902241,-0.20256,Yes,Little Rock
212.139.82.29,52.18446,-0.68759,Yes,Cairo
86.141.238.107,53.73333,-2.66667,Yes,Farkhah
86.29.66.189,51.50853,-0.12574,Yes,Warrington
86.129.11.158,50.720482,-1.8795,Yes,Burlington
161.73.16.40,51.75737,-1.21974,Yes,-
79.169.228.238,38.716671,-9.13333,Yes,Zurich
180.190.0.241,14.55027,121.032692,Yes,Overland
66.37.93.171,36.912899,-80.316422,Yes,Manchester
119.153.100.84,31.549721,74.343613,Yes,Downham
99.253.251.85,45.508839,-73.587807,Yes,Walsoken
182.188.166.162,33.141762,73.767357,Yes,Bartley
69.114.58.13,40.868149,-73.425682,Yes,Sheffield
175.110.74.74,38.895111,-77.036369,Yes,Ayton
81.105.137.160,55.86515,-4.25763,Yes,Ottawa
143.52.5.10,53.382969,-1.4659,Yes,Accra
117.207.115.148,16.299999,80.449997,Yes,Pinjaur
27.34.243.142,12.97623,77.603287,Yes,Bartley
201.141.91.21,19.428471,-99.127663,Yes,York
138.37.115.32,51.49514,-0.10057,Yes,Manchester
81.106.57.25,51.262489,-1.08708,Yes,Rotterdam
165.228.18.91,-34.72625,135.87442,Yes,Llandovery
122.60.173.145,-36.866669,174.766663,Yes,Dalroy
41.205.14.82,4.04827,9.70428,Yes,Bradford
81.106.171.101,52.953602,-1.15047,Yes,Marion
134.36.154.191,56.5,-2.96667,Yes,Springfield
41.190.90.67,5.55602,-0.1969,Yes,-
178.128.82.147,1.28967,103.850067,Yes,Mumbai
134.148.10.12,-32.892052,151.705307,Yes,Manchester
147.197.251.155,51.50853,-0.12574,Yes,Manchester
92.0.208.72,52.627831,1.29834,Yes,Ljubljana
86.165.85.156,53.382969,-1.4659,Yes,Hempstead
91.107.113.226,55.75222,37.615559,Yes,Ottawa
81.104.245.199,51.979439,-0.2284,Yes,Birmingham
150.140.132.3,38.299999,21.783331,Yes,Edinburgh
39.52.208.229,32.510101,74.543129,Yes,London
14.203.56.132,-33.816669,151.100006,Yes,Brighton
101.161.242.32,-37.813999,144.963318,Yes,London
60.241.137.179,-33.867851,151.207321,Yes,Hamburg
86.182.157.20,50.798988,-1.09125,Yes,Trostre
78.149.253.229,55.099998,-6.63333,Yes,Eastleigh
174.33.10.74,38.303181,-77.460541,Yes,Broadstairs
65.51.87.97,40.712791,-74.006065,Yes,Leeds
87.212.163.252,52.339642,4.96256,Yes,Birmingham
220.244.124.130,-28.866671,153.583328,Yes,Great Ellingham
188.231.38.219,49.273849,1.21021,Yes,Saint Albans
117.192.84.159,13.00056,76.099442,Yes,Walton le Dale
109.121.200.10,42.099998,25.216669,Yes,Bartley
210.13.83.178,31.224333,121.469139,Yes,Birmingham
86.161.140.163,53.55201,-0.49214,Yes,Maidenhead
86.170.61.33,52.862679,0.63124,Yes,Sunbury-on-Thames
83.77.133.67,46.010078,8.96004,Yes,Gorleston-on-Sea
70.64.16.232,52.116791,-106.634521,Yes,Thurso
90.196.86.183,53.41058,-2.97794,Yes,New Shildon
92.11.116.167,52.481419,-1.89983,Yes,Layham
217.43.48.146,53.116669,-3.03333,Yes,Abingdon
14.203.204.24,-33.867851,151.207321,Yes,North Shields
94.11.81.118,54.279659,-0.40443,Yes,Middlesbrough
90.202.78.3,53.73333,-2.66667,Yes,Beckford
72.242.6.233,39.768379,-86.158043,Yes,Buckie
188.4.23.219,36.400002,28.116671,Yes,Birmingham
71.188.235.49,42.32785,-77.661102,Yes,Knitsley
80.42.36.8,51.406059,0.01519,Yes,Southampton
86.154.254.7,52.12495,0.45044,Yes,Gourdon
81.157.164.168,50.720482,-1.8795,Yes,Warminster
212.219.207.42,54.113499,-3.19054,Yes,Birmingham
144.134.211.22,-28.00029,153.430878,Yes,Stevenage
77.102.218.129,56.01667,-3.78333,Yes,Warrington
139.222.230.78,52.627831,1.29834,Yes,Walton le Dale
92.16.63.96,53.382969,-1.4659,Yes,London
86.142.158.176,53.382969,-1.4659,Yes,Bournemouth
2.26.88.83,50.796539,-0.6747,Yes,Headington
92.3.102.78,51.71944,-3.43028,Yes,Lisbon
82.33.230.34,50.914398,-1.56553,Yes,Makati
80.1.160.30,53.480949,-2.23743,Yes,Floyd
2.121.22.223,53.41058,-2.97794,Yes,Lahore
128.243.220.42,52.953602,-1.15047,Yes,Montreal
216.130.24.98,40.425949,-80.048691,Yes,New Mirpur
124.189.49.15,-37.813999,144.963318,Yes,Huntington
208.54.36.142,47.561195,-122.153412,Yes,Washington
64.30.81.154,42.262589,-71.802292,Yes,Glasgow
131.111.21.21,52.210579,0.06094,Yes,Sheffield
194.80.187.101,53.52327,-1.13691,Yes,Guntur
173.76.8.72,42.504822,-71.19561,Yes,Bengaluru
99.228.179.48,45.508839,-73.587807,Yes,Mexico City
89.242.38.163,52.98333,-1.98333,Yes,Elephant & Castle
86.28.157.249,54.973282,-1.61396,Yes,Basingstoke
77.96.72.19,53.944519,-1.88424,Yes,Port Lincoln
128.187.0.164,40.13023,-111.578529,Yes,Auckland
82.46.11.46,53.683311,-1.49768,Yes,Douala
92.16.92.197,51.49514,-0.10057,Yes,Nottingham
78.151.113.148,51.246769,0.60682,Yes,Dundee
92.28.143.245,52.01825,1.23589,Yes,Accra
88.106.162.178,51.587742,-2.99835,Yes,Singapore
194.66.216.40,50.836731,-0.78003,Yes,Callaghan
194.66.32.1,52.406559,-1.51217,Yes,London
81.141.59.17,55.902882,-3.52261,Yes,Norwich
68.220.94.52,33.818501,-84.361015,Yes,Sheffield
96.226.77.101,41.770966,-88.15229,Yes,Moscow
75.135.53.17,40.699459,-99.081482,Yes,Letchworth
198.96.86.4,43.650204,-79.39753,Yes,Rion
217.44.184.34,53.480949,-2.23743,Yes,Sialkot
92.251.190.90,53.73333,-7.8,Yes,Ryde
109.79.137.246,52.654171,-7.25222,Yes,Melbourne
86.45.146.248,52.515831,-7.88556,Yes,Sydney
121.219.21.5,-37.813999,144.963318,Yes,Portsmouth
208.68.21.27,40.787453,-74.258492,Yes,Birmingham
203.208.122.21,-34.185509,142.162506,Yes,Mill Loughan
89.142.63.48,46.051079,14.50513,Yes,Fredericksburg
129.11.76.215,51.246769,0.60682,Yes,New York City
79.64.83.49,53.480949,-2.23743,Yes,Diemen
87.114.175.232,50.316669,-3.91667,Yes,East Ballina
160.9.42.61,51.246769,0.60682,Yes,Val-de-Reuil
160.9.41.24,51.246769,0.60682,Yes,Hassan
163.167.156.51,51.50853,-0.12574,Yes,Parvomay
163.167.210.47,51.50853,-0.12574,Yes,Shanghai
195.93.21.98,38.997707,-77.433182,Yes,Brigg
163.167.73.218,51.50853,-0.12574,Yes,Great Bircham
163.167.72.79,51.50853,-0.12574,Yes,Lugano
24.191.60.88,40.86871,-73.001488,Yes,Saskatoon
195.137.56.181,53.480949,-2.23743,Yes,Liverpool
31.205.42.255,53.382969,-1.4659,Yes,Birmingham
90.209.186.31,54.066669,-2.83333,Yes,Hope
86.160.140.210,50.723598,-3.52751,Yes,Sydney
128.243.2.39,52.953602,-1.15047,Yes,Scarborough
94.195.183.76,50.471512,-4.7243,Yes,Walton le Dale
81.110.246.122,52.953602,-1.15047,Yes,Indianapolis
82.7.68.191,50.828381,-0.13947,Yes,Kremasti
10.2.132.26,0,0,Yes,Hornell
82.30.254.14,51.553059,-0.3023,Yes,Bromley
81.135.53.142,52.78709,-0.15141,Yes,Thurlow
194.176.105.20,52.481419,-1.89983,Yes,Sheffield
86.5.28.192,53.799999,-2.23333,Yes,Bournemouth
31.220.194.17,51.48,-3.18,Yes,Roose
128.243.2.41,52.953602,-1.15047,Yes,Gold Coast
128.243.65.4,52.953602,-1.15047,Yes,Carron
128.243.167.78,52.953602,-1.15047,Yes,Norwich
86.182.202.171,54.583328,-5.93333,Yes,Bangor
90.216.81.242,51.246769,0.60682,Yes,Birmingham
86.171.185.190,52.481419,-1.89983,Yes,Luton
31.220.194.5,51.48,-3.18,Yes,Luton
81.98.101.8,54.583328,-5.93333,Yes,Sheffield
185.3.86.19,51.406059,-0.4137,Yes,Sheffield
194.176.105.144,52.481419,-1.89983,Yes,South Bersted
128.243.253.117,52.953602,-1.15047,Yes,Aber-nant
194.176.105.132,52.481419,-1.89983,Yes,Bartley
82.9.177.37,51.246769,0.60682,Yes,Reading
86.29.94.194,51.50853,-0.12574,Yes,Manchester
217.194.149.121,48.208488,16.37208,Yes,Liverpool
82.26.246.145,53.59481,-0.65513,Yes,Luton
128.243.253.115,52.953602,-1.15047,Yes,Luton
86.129.36.90,51.735748,0.46958,Yes,Luton
86.1.168.198,55.749229,-4.6368,Yes,Luton
82.31.93.196,50.914398,-1.56553,Yes,Luton
81.105.232.152,52.283329,-1.58333,Yes,Luton
84.66.69.150,53.480949,-2.23743,Yes,Nottingham
81.106.164.41,52.953602,-1.15047,Yes,Nottingham
86.12.61.207,53.5009,-0.11026,Yes,Pittsburgh
195.92.67.65,51.655312,-0.39602,Yes,Melbourne
81.106.160.230,51.587742,-2.99835,Yes,North Oxford
84.92.117.38,51.557968,-1.78116,Yes,Bellevue
90.242.16.52,51.557968,-1.78116,Yes,Worcester
86.0.175.217,52.585468,-2.12296,Yes,Coton
81.103.189.226,51.50853,-0.12574,Yes,Doncaster
79.68.1.108,51.416672,-2.85,Yes,Burlington
195.93.21.106,38.997707,-77.433182,Yes,Montreal
90.241.54.11,50.720482,-1.8795,Yes,Luton
89.242.2.119,55.952061,-3.19648,Yes,Cheadle
82.31.147.138,51.50853,-0.12574,Yes,Newcastle upon Tyne
81.159.173.81,55.73595,-3.83019,Yes,Addingham
82.12.229.23,52.481419,-1.89983,Yes,Mapleton
81.153.78.244,51.50853,-0.12574,Yes,Wakefield
62.6.139.10,51.75,-0.33333,Yes,Elephant & Castle
62.254.0.16,52.953602,-1.15047,Yes,Leeds
86.136.161.247,54.716671,-6.38333,Yes,Nacton
86.142.80.167,52.710091,-2.75208,Yes,Newport
65.9.210.115,47.603909,-122.329842,Yes,Chichester
96.253.201.124,41.40897,-75.662407,Yes,Coventry
24.152.214.10,40.808929,-75.61834,Yes,Livingston
98.235.138.56,40.285919,-76.650253,Yes,Lancaster
98.253.129.63,41.593369,-87.346428,Yes,Atlanta
194.83.30.11,55.952061,-3.19648,Yes,Naperville
172.101.96.230,42.963951,-78.737808,Yes,Kearney
67.242.213.159,44.986431,-73.446533,Yes,Toronto
69.207.131.19,43.154781,-77.615562,Yes,Manchester
72.231.252.130,42.767841,-78.613358,Yes,Longford
74.77.74.74,43.03867,-78.864197,Yes,Kilkenny
67.242.219.191,42.874229,-77.28804,Yes,Cashel
67.240.164.250,42.853333,-78.010277,Yes,Melbourne
50.48.92.63,42.337929,-75.160751,Yes,West Orange
45.46.153.242,42.933689,-72.278137,Yes,Mildura
50.49.30.40,43.153236,-77.607857,Yes,Ljubljana
50.48.153.41,43.153236,-77.607857,Yes,Leeds
72.231.237.239,42.963951,-78.737808,Yes,Manchester
162.30.48.172,43.098671,-77.44194,Yes,Kingston
67.255.5.199,44.84866,-74.294899,Yes,Bartley
74.69.46.65,43.97924,-71.120354,Yes,Manchester
173.225.52.219,43.153236,-77.607857,Yes,Leeds
74.74.140.2,43.098671,-77.44194,Yes,Leeds
65.37.16.23,43.153236,-77.607857,Yes,London
74.74.186.209,43.150555,-76.194168,Yes,London
184.153.203.226,43.974781,-75.910759,Yes,Milton
72.228.148.14,42.63839,-79.027817,Yes,London
74.69.36.112,42.142849,-77.054688,Yes,Dulles
74.69.94.185,43.154781,-77.615562,Yes,London
66.66.126.246,42.81424,-73.939568,Yes,London
107.77.224.71,40.712791,-74.006065,Yes,Coram
71.217.234.45,33.749001,-84.387978,Yes,Manchester
86.45.129.40,54.799999,-7.78333,Yes,Sheffield
92.251.210.55,52.951111,-7.80167,Yes,Lancaster
82.10.247.41,53.41058,-2.97794,Yes,Exeter
72.76.253.23,40.732121,-74.173607,Yes,Nottingham
86.153.133.106,52.481419,-1.89983,Yes,Bodmin
82.47.186.218,51.50853,-0.12574,Yes,Nottingham
86.144.94.175,51.456249,-0.97113,Yes,Brighton
90.199.28.198,53.41058,-2.97794,Yes,Nottingham
212.183.140.36,51.40033,-1.32059,Yes,-
193.61.255.87,51.50853,-0.12574,Yes,Nottingham
146.90.123.2,51.029869,-0.5497,Yes,Brent
193.61.255.82,51.50853,-0.12574,Yes,Spalding
90.211.20.243,51.50853,-0.12574,Yes,Birmingham
80.192.144.37,53.382969,-1.4659,Yes,Burnley
92.13.143.255,50.723598,-3.52751,Yes,Cardiff
93.96.229.37,51.50853,-0.12574,Yes,Nottingham
161.112.232.17,53.382969,-1.4659,Yes,Nottingham
163.160.107.179,51.246769,0.60682,Yes,Nottingham
72.173.98.110,39.139851,-121.631241,Yes,Belfast
71.142.68.64,37.774929,-122.419418,Yes,Leeds
212.219.94.65,51.50853,-0.12574,Yes,Birmingham
146.87.255.19,53.480949,-2.23743,Yes,Cardiff
58.106.238.99,-37.813999,144.963318,Yes,Belfast
124.176.103.64,-37.813999,144.963318,Yes,Sunbury-on-Thames
129.111.62.69,29.500528,-98.572983,Yes,Birmingham
86.131.246.131,57.143688,-2.09814,Yes,Birmingham
5.71.152.122,53.480949,-2.23743,Yes,Nottingham
175.39.35.249,-26.53994,151.837296,Yes,Birmingham
211.30.246.202,-33.867851,151.207321,Yes,Nottingham
138.25.236.143,-33.867851,151.207321,Yes,Leeds
124.184.252.55,-33.867851,151.207321,Yes,London
122.106.254.207,-32.927151,151.776474,Yes,Vienna
220.101.84.33,-27.467939,153.028091,Yes,Frodingham
175.39.34.128,-37.813999,144.963318,Yes,Nottingham
122.106.209.55,-33.867851,151.207321,Yes,Chelmsford
203.51.106.218,-33.867851,151.207321,Yes,Beith
220.239.180.224,-33.950001,151.050003,Yes,Bartley
60.241.178.222,-33.867851,151.207321,Yes,Warwick
2.29.134.213,51.671089,-1.28278,Yes,Manchester
203.97.204.13,-36.866669,174.766663,Yes,Nottingham
203.184.25.188,-43.533329,172.633331,Yes,Brigsley
144.32.196.6,53.95763,-1.08271,Yes,Watford
67.142.175.25,39.739151,-104.984703,Yes,Newport
86.160.129.210,53.480949,-2.23743,Yes,Swindon
125.22.40.182,13.08784,80.278473,Yes,Swindon
2.216.103.66,53.480949,-2.23743,Yes,Wolverhampton
86.3.211.234,51.48,-3.18,Yes,London
90.196.145.235,53.34174,-2.73124,Yes,Kenn
146.227.1.12,52.638599,-1.13169,Yes,Dulles
185.6.154.22,53.744598,-0.33525,Yes,Swindon
1.123.49.4,-26.66008,153.099533,Yes,Bournemouth
1.125.170.153,-34.928661,138.598633,Yes,Edinburgh
58.170.117.119,-34.928661,138.598633,Yes,London
195.10.102.252,54.150002,-4.48333,Yes,Carluke
10.2.132.30,0,0,Yes,Birmingham
10.2.132.18,0,0,Yes,London
80.5.101.179,53.560471,-0.03225,Yes,Saint Albans
90.214.133.220,55.952061,-3.19648,Yes,Nottingham
185.6.154.26,53.744598,-0.33525,Yes,Staffordstown
5.198.36.44,53.744598,-0.33525,Yes,Nottingham
77.86.108.253,53.744598,-0.33525,Yes,Birmingham
150.237.238.241,52.48333,-0.75,Yes,Saint Albans
150.237.238.244,52.48333,-0.75,Yes,Shrewsbury
194.176.105.148,52.481419,-1.89983,Yes,Seattle
5.198.17.130,53.744598,-0.33525,Yes,Scranton
194.176.105.136,52.481419,-1.89983,Yes,Palmerton
77.86.94.49,53.744598,-0.33525,Yes,Hershey
213.249.214.36,53.744598,-0.33525,Yes,Gary
82.18.172.196,53.579048,-0.65437,Yes,Hammond
85.255.232.106,51.50853,-0.12574,Yes,Edinburgh
150.237.203.60,52.48333,-0.75,Yes,Williamsville
5.198.92.213,53.744598,-0.33525,Yes,Champlain
5.198.2.78,53.744598,-0.33525,Yes,Rochester
94.72.221.8,53.744598,-0.33525,Yes,East Aurora
77.86.67.213,53.769871,-0.60107,Yes,North Tonawanda
87.102.84.16,50.316669,-3.91667,Yes,Canandaigua
194.176.105.25,52.481419,-1.89983,Yes,Covington
87.102.37.160,53.769871,-0.60107,Yes,Franklin
82.27.177.51,55.901371,-4.4057,Yes,Covington
77.86.74.205,53.744598,-0.33525,Yes,Keene
86.136.129.107,52.481419,-1.89983,Yes,Rochester
86.156.209.149,52.481419,-1.89983,Yes,Rochester
82.7.66.87,52.953602,-1.15047,Yes,Williamsville
83.100.174.79,53.744598,-0.33525,Yes,Fairport
109.145.69.136,53.387642,-0.33781,Yes,Malone
83.100.204.2,50.316669,-3.91667,Yes,Conway
77.86.60.33,53.731098,0.03347,Yes,Rochester
82.132.248.239,51.509491,-0.59541,Yes,Fairport
2.218.146.203,53.480949,-2.23743,Yes,Rochester
83.100.235.109,54.083061,-0.19192,Yes,Clay
94.5.236.153,53.194141,0.33358,Yes,Watertown
185.65.165.198,53.744598,-0.33525,Yes,Angola
87.102.17.173,53.744598,-0.33525,Yes,Corning
86.177.118.151,50.371529,-4.14305,Yes,Rochester
212.50.179.64,53.744598,-0.33525,Yes,Schenectady
82.25.223.249,53.566669,-0.65,Yes,New York City
159.253.68.230,53.744598,-0.33525,Yes,Atlanta
150.237.37.104,52.48333,-0.75,Yes,Ballybofey
94.72.236.163,53.744598,-0.33525,Yes,Roscrea
78.149.67.60,51.50853,-0.12574,Yes,Liverpool
77.86.1.198,53.73777,-0.56987,Yes,Newark
81.108.119.127,54.653381,-5.66895,Yes,Birmingham
178.78.96.199,53.8773,-0.45729,Yes,London
81.98.131.191,52.25,-0.88333,Yes,Warrington
194.176.105.141,52.481419,-1.89983,Yes,Reading
86.141.72.196,53.341839,-2.635,Yes,Liverpool
82.132.213.218,51.522789,-0.71986,Yes,Newbury
87.102.36.147,53.744598,-0.33525,Yes,London
150.237.85.247,52.48333,-0.75,Yes,Kirdford
82.10.16.179,52.370918,-1.26417,Yes,London
151.224.101.221,52.481419,-1.89983,Yes,London
2.30.196.132,53.480949,-2.23743,Yes,Sheffield
86.14.196.224,53.118832,-1.11852,Yes,Exeter
212.219.94.36,51.50853,-0.12574,Yes,London
83.100.170.181,53.845619,-0.49811,Yes,Sheffield
86.130.117.228,52.18446,-0.68759,Yes,-
94.197.115.130,51.50853,-0.12574,Yes,Leeds
86.172.177.239,53.270229,-4.48079,Yes,Yuba City
2.96.124.160,53.480949,-2.23743,Yes,Hartsville
109.76.192.98,52.049999,-9.51667,Yes,San Francisco
81.147.160.237,54.522442,-1.61414,Yes,London
71.113.159.245,40.335651,-75.926872,Yes,Manchester
86.8.44.99,51.50853,-0.12574,Yes,Melbourne
217.43.221.28,51.50853,-0.12574,Yes,Melbourne
82.30.248.158,53.480949,-2.23743,Yes,-
79.77.71.187,51.800072,0.64038,Yes,San Antonio
122.54.153.137,14.08776,120.970978,Yes,Aberdeen
134.148.167.183,-32.892052,151.705307,Yes,Manchester
193.63.192.168,51.533329,0.08333,Yes,Kingaroy
92.20.154.125,55.883331,-3.7,Yes,Sydney
209.93.10.91,51.50853,-0.12574,Yes,Melbourne
91.106.146.137,53.811668,10.37417,Yes,Sydney
195.188.152.12,55.952061,-3.19648,Yes,Sydney
77.101.169.70,51.31889,-2.20861,Yes,Newcastle
90.199.97.213,53.480949,-2.23743,Yes,Brisbane
92.24.194.147,51.553059,-0.3023,Yes,Armidale
94.11.176.166,51.587742,-2.99835,Yes,Melbourne
86.9.35.183,51.620789,-3.94323,Yes,Sydney
150.237.201.53,52.48333,-0.75,Yes,Sydney
87.102.116.224,53.55201,-0.49214,Yes,Riverwood
87.102.32.114,53.744598,-0.33525,Yes,Sydney
2.103.104.158,53.612389,-0.22219,Yes,Sydney
77.86.61.125,53.744598,-0.33525,Yes,Abingdon
83.100.174.181,53.744598,-0.33525,Yes,Auckland
94.72.208.187,53.737331,-0.49167,Yes,Christchurch
213.249.215.189,53.790211,-0.50679,Yes,York
87.114.229.173,51.416672,-2.85,Yes,Denver
178.78.82.21,53.744598,-0.33525,Yes,Manchester
87.102.12.60,53.744598,-0.33525,Yes,Chennai
109.145.200.88,51.712639,-4.98775,Yes,Manchester
83.100.253.175,53.528278,-0.65385,Yes,Luton
86.178.230.143,50.914398,-1.56553,Yes,Cardiff
51.9.84.154,53.744598,-0.33525,Yes,Runcorn
151.231.27.140,52.18446,-0.68759,Yes,Leicester
77.86.41.210,53.744598,-0.33525,Yes,Hull
92.16.115.80,52.928219,-2.1108,Yes,-
178.78.98.132,53.744598,-0.33525,Yes,Maroochydore
81.106.184.254,52.922771,-1.47663,Yes,Adelaide
176.27.27.41,53.382969,-1.4659,Yes,Adelaide
80.44.251.121,53.22683,-0.53792,Yes,Douglas
82.30.252.239,51.553059,-0.3023,Yes,-
213.253.8.70,51.50853,-0.12574,Yes,-
31.205.40.62,55.86515,-4.25763,Yes,-
82.14.93.142,51.50853,-0.12574,Yes,-
2.24.65.187,50.371529,-4.14305,Yes,Cleethorpes
95.151.114.9,55.037682,-2.12843,Yes,Edinburgh
109.149.178.132,53.382969,-1.4659,Yes,Hull
31.205.39.127,53.480949,-2.23743,Yes,Hull
86.148.120.33,52.124271,-1.44509,Yes,Hull
151.231.174.228,53.036812,-0.46176,Yes,Cottingham
78.149.59.223,53.140148,-0.40368,Yes,Cottingham
86.12.81.142,51.50853,-0.12574,Yes,Birmingham
212.219.220.119,53.22683,-0.53792,Yes,Hull
94.194.3.74,52.75,0.3,Yes,Birmingham
82.9.221.94,50.914398,-1.56553,Yes,Hull
2.98.179.60,52.638599,-1.13169,Yes,Hull
31.205.0.216,54.583328,-5.93333,Yes,Scunthorpe
86.21.202.51,51.50853,-0.12574,Yes,London
92.6.125.54,51.50853,-0.12574,Yes,Cottingham
86.15.152.105,51.406059,-0.4137,Yes,Hull
31.205.39.235,53.480949,-2.23743,Yes,Hull
31.205.0.218,54.583328,-5.93333,Yes,Hull
2.26.187.211,53.382969,-1.4659,Yes,South Cave
37.203.160.144,51.416672,-2.85,Yes,Kingston
109.170.187.101,51.546188,-0.47961,Yes,Birmingham
86.186.232.160,52.18446,-0.68759,Yes,South Cave
90.208.35.109,52.739971,-1.35536,Yes,Clydebank
81.155.3.223,51.849998,-2.26667,Yes,Hull
82.7.150.181,51.50853,-0.12574,Yes,Birmingham
90.216.119.121,54.562881,-1.54741,Yes,Birmingham
90.219.8.11,52.481419,-1.89983,Yes,Nottingham
86.18.204.255,51.50853,-0.12574,Yes,Hull
31.205.40.25,55.86515,-4.25763,Yes,Market Rasen
79.68.227.237,50.368839,-4.86935,Yes,Kingston
78.145.174.36,51.553059,-0.3023,Yes,Withernsea
31.205.28.173,54.700001,-3.26667,Yes,Slough
31.205.39.245,53.480949,-2.23743,Yes,Manchester
178.78.87.231,53.744598,-0.33525,Yes,Bridlington
86.158.226.88,52.481419,-1.89983,Yes,Ingoldmells
94.30.45.171,50.966671,-1.35,Yes,Hull
82.27.159.70,50.914398,-1.56553,Yes,Hull
83.223.212.8,62.973969,8.72472,Yes,Plymouth
90.213.162.13,50.828381,-0.13947,Yes,Hull
86.172.154.235,55.069592,-3.61139,Yes,Brumby
2.127.89.55,53.085388,-2.97062,Yes,Hull
90.199.173.198,53.480949,-2.23743,Yes,Cottingham
82.18.222.132,51.75,-0.33333,Yes,Hull
86.172.109.29,55.952061,-3.19648,Yes,London
82.21.167.148,51.723122,-0.5367,Yes,Elloughton
176.254.211.169,54.653381,-5.66895,Yes,Bangor
78.149.89.89,52.33049,-0.18651,Yes,Leconfield
31.205.39.81,53.480949,-2.23743,Yes,Northampton
86.168.66.83,53.382969,-1.4659,Yes,Birmingham
176.249.221.16,55.73595,-3.83019,Yes,Daresbury
86.12.80.229,51.50853,-0.12574,Yes,Maidenhead
31.52.31.249,52.573639,-0.24777,Yes,Hull
213.122.144.33,55.86515,-4.25763,Yes,Cottingham
31.205.39.76,53.480949,-2.23743,Yes,Rugby
78.149.48.244,53.140148,-0.40368,Yes,-
83.223.212.15,62.973969,8.72472,Yes,-
81.108.14.174,50.720482,-1.8795,Yes,Birmingham
151.227.12.159,54.433331,-6.41667,Yes,Manchester
86.158.57.60,50.723598,-3.52751,Yes,Rainworth
58.106.173.238,-33.867851,151.207321,Yes,London
134.148.96.4,-32.892052,151.705307,Yes,London
58.104.9.191,-33.867851,151.207321,Yes,Bishop Burton
85.210.149.147,50.723598,-3.52751,Yes,Warrington
212.251.178.231,59.912731,10.74609,Yes,London
128.243.253.116,52.953602,-1.15047,Yes,Bryngwran
128.243.253.101,52.953602,-1.15047,Yes,Manchester
80.6.126.81,53.190498,-2.89189,Yes,London
81.141.177.56,53.382969,-1.4659,Yes,Cill Airne
128.243.253.102,52.953602,-1.15047,Yes,Low Coniscliffe
88.110.7.157,51.84417,-4.34556,Yes,Reading
86.19.106.12,50.720482,-1.8795,Yes,London
95.150.11.221,51.456249,-0.97113,Yes,London
93.96.218.29,51.50853,-0.12574,Yes,Manchester
86.159.90.189,51.246769,0.60682,Yes,Nottingham
178.102.220.62,51.50853,-0.12574,Yes,Witham
149.254.49.71,51.515282,0.05659,Yes,Sampaloc
86.18.165.67,51.50853,-0.12574,Yes,Callaghan
86.30.161.197,51.50853,-0.12574,Yes,Barking
31.220.194.0,51.48,-3.18,Yes,Armadale
73.202.164.126,37.323002,-122.032181,Yes,London
86.152.223.131,51.246769,0.60682,Yes,Bad Oldesloe
78.149.108.77,52.90461,-0.20505,Yes,Edinburgh
128.243.253.118,52.953602,-1.15047,Yes,Trowbridge
78.144.171.111,54.863571,-6.27628,Yes,Manchester
2.98.176.51,53.382969,-1.4659,Yes,Brent
2.218.2.140,51.522789,-0.71986,Yes,Newport
92.25.132.75,51.50853,-0.12574,Yes,Swansea
128.243.253.107,52.953602,-1.15047,Yes,-
128.243.253.108,52.953602,-1.15047,Yes,Cottingham
128.243.253.104,52.953602,-1.15047,Yes,Brigg
128.243.253.111,52.953602,-1.15047,Yes,Hull
2.121.240.1,51.522789,-0.71986,Yes,Immingham
82.12.80.244,54.583328,-5.93333,Yes,South Cave
92.28.69.82,53.480949,-2.23743,Yes,Hull
86.155.147.74,56.11903,-3.93682,Yes,Hull
86.5.118.157,51.50853,-0.12574,Yes,Hull
86.15.194.184,51.50853,-0.12574,Yes,Swanland
86.128.243.242,52.481419,-1.89983,Yes,Little Weighton
82.19.176.63,53.480949,-2.23743,Yes,Kenn
82.17.88.163,51.48,-3.18,Yes,Hull
90.206.183.45,51.246769,0.60682,Yes,Birmingham
81.153.79.28,51.50853,-0.12574,Yes,Hull
92.28.166.116,50.828381,-0.13947,Yes,Kingston
81.170.123.174,51.640869,-2.67683,Yes,Waterston
86.128.253.89,51.73333,-2.36667,Yes,Elloughton
82.31.59.223,53.480949,-2.23743,Yes,Messingham
92.11.239.63,52.638599,-1.13169,Yes,Bartley
86.153.82.12,50.828381,-0.13947,Yes,Hull
90.240.81.19,51.406059,-0.4137,Yes,Hull
212.139.114.16,51.48,-3.18,Yes,Warrington
88.104.139.34,51.50853,-0.12574,Yes,Hull
86.14.200.100,51.557968,-1.78116,Yes,London
90.208.161.75,51.238621,-2.9978,Yes,Moddershall
86.152.15.139,56.022461,-3.82872,Yes,Birmingham
91.107.84.12,55.75222,37.615559,Yes,Hull
86.15.155.175,53.480949,-2.23743,Yes,Brumby
81.152.67.170,53.161579,0.24484,Yes,Derby
86.13.164.92,51.406059,-0.4137,Yes,Sheffield
86.4.103.72,53.382969,-1.4659,Yes,Lincoln
86.3.99.186,53.73333,-2.66667,Yes,Brent
86.137.33.47,53.480949,-2.23743,Yes,London
86.141.39.51,52.51667,-3.3,Yes,Glasgow
86.129.51.190,51.246769,0.60682,Yes,London
86.9.128.105,51.406059,-0.4137,Yes,Plymouth
213.121.241.209,54.066669,-2.83333,Yes,Humshaugh
82.24.151.115,51.48,-3.18,Yes,Sheffield
80.4.101.176,52.481419,-1.89983,Yes,Manchester
84.64.233.202,50.720482,-1.8795,Yes,Ratley
86.3.218.94,52.953602,-1.15047,Yes,Cranwell
82.19.103.26,54.57848,-1.04224,Yes,Metheringham
85.189.112.37,52.922771,-1.47663,Yes,London
82.18.40.67,55.900501,-4.45028,Yes,Lincoln
86.136.157.58,51.50853,-0.12574,Yes,Terrington Saint Clement
81.79.194.5,51.246769,0.60682,Yes,Bartley
81.106.163.120,51.48,-3.18,Yes,Leicester
88.107.235.100,52.585468,-2.12296,Yes,Belfast
81.131.97.58,52.992599,-1.70451,Yes,London
195.7.255.75,52.18935,-2.22001,Yes,London
86.128.57.133,51.50853,-0.12574,Yes,Sunbury-on-Thames
83.97.32.227,53.480949,-2.23743,Yes,Manchester
195.92.168.164,52.481419,-1.89983,Yes,Belfast
84.69.116.164,52.481419,-1.89983,Yes,Sheffield
88.105.95.201,52.5,1.7,Yes,Kenn
86.143.94.19,51.73333,-2.36667,Yes,Uxbridge
80.3.128.5,50.914398,-1.56553,Yes,Warrington
81.131.29.245,54.066669,-2.83333,Yes,Whitwick
84.92.62.86,50.824348,-4.5413,Yes,Hempstead
81.79.27.80,52.18446,-0.68759,Yes,London
62.253.128.11,51.73333,-2.36667,Yes,High Beaumont Hill
195.93.21.102,38.997707,-77.433182,Yes,Birmingham
86.9.140.174,53.08157,-1.24375,Yes,London
86.22.96.110,50.798988,-1.09125,Yes,Glasgow
88.111.5.27,53.166672,-3,Yes,Nanpean
82.23.21.149,52.638599,-1.13169,Yes,Brent
86.6.173.167,51.546188,-0.47961,Yes,Sunderland
82.23.22.219,52.638599,-1.13169,Yes,Manchester
84.13.230.176,55.116669,-6.46667,Yes,Hull
128.243.253.113,52.953602,-1.15047,Yes,Birmingham
86.19.79.140,53.560471,-0.03225,Yes,Eastleigh
92.8.2.241,53.480949,-2.23743,Yes,Bartley
60.227.86.169,-35.04007,150.667969,Yes,Surnadal
121.216.24.233,-33.867851,151.207321,Yes,Brighton
86.139.210.3,51.456249,-0.97113,Yes,Dumfries
178.245.139.4,41.01384,28.949659,Yes,Gresford
31.205.39.101,53.480949,-2.23743,Yes,Manchester
107.77.232.149,34.25761,-88.703392,Yes,Saint Albans
217.146.204.80,45.697979,9.66895,Yes,Edinburgh
5.80.181.0,53.95763,-1.08271,Yes,Bovingdon
86.155.129.13,52.481419,-1.89983,Yes,Bangor
81.156.88.73,52.30151,0.5154,Yes,Huntingdon
2.24.42.219,52.627831,1.29834,Yes,Manchester
86.143.116.89,55.616669,-4.6,Yes,Sheffield
2.97.184.194,51.735748,0.46958,Yes,Carluke
212.219.220.139,53.22683,-0.53792,Yes,London
121.218.201.154,-33.867851,151.207321,Yes,Peterborough
86.191.24.26,51.246769,0.60682,Yes,Glasgow
86.26.172.127,51.50853,-0.12574,Yes,Manchester
194.106.44.13,53.480949,-2.23743,Yes,Nottingham
185.156.137.3,50.85162,-1.17929,Yes,Metheringham
174.106.186.163,35.052662,-78.878357,Yes,Surnadal
152.16.144.213,35.996613,-78.899078,Yes,Bournemouth
194.176.105.172,52.481419,-1.89983,Yes,Seagoe
81.96.176.199,52.481419,-1.89983,Yes,Exeter
86.128.247.132,51.631229,-0.6769,Yes,Nottingham
79.66.13.13,55.952061,-3.19648,Yes,Sydney
86.167.247.4,55.86515,-4.25763,Yes,Callaghan
109.154.195.92,50.72654,-2.93477,Yes,Sydney
90.201.136.42,54.279659,-0.40443,Yes,Exeter
121.6.170.168,1.28967,103.850067,Yes,Oslo
109.151.50.54,52.026909,0.96529,Yes,Nottingham
77.100.217.109,55.916672,-4.03333,Yes,Nottingham
2.121.24.164,51.50853,-0.12574,Yes,Chester
146.176.140.122,55.952061,-3.19648,Yes,Sheffield
202.36.68.95,-36.866669,174.766663,Yes,Nottingham
1.129.97.13,-33.867851,151.207321,Yes,Nottingham
1.129.97.125,-33.867851,151.207321,Yes,Llanllwch
202.180.120.24,-36.866669,174.766663,Yes,Bournemouth
121.79.255.189,-40.349998,175.616669,Yes,Reading
146.176.193.164,55.952061,-3.19648,Yes,London
5.68.130.113,51.279041,1.07992,Yes,Leeds
82.41.237.14,52.481419,-1.89983,Yes,London
86.142.203.213,55.01646,-1.44925,Yes,Beckton
92.30.24.213,52.746319,-1.4732,Yes,Nottingham
92.24.38.44,51.246769,0.60682,Yes,London
85.210.109.150,51.456249,-0.97113,Yes,London
84.13.169.64,53.617661,-2.1552,Yes,Cardiff
2.126.117.196,52.922771,-1.47663,Yes,Cupertino
86.18.82.162,51.50853,-0.12574,Yes,Leeds
86.30.181.184,54.555431,-0.89459,Yes,Donington
86.18.89.139,53.570702,-0.13905,Yes,Nottingham
81.107.66.138,52.80521,-2.11636,Yes,Nottingham
86.164.90.168,52.25,-0.88333,Yes,Ballymena
84.70.78.42,54.542919,-1.54555,Yes,Sheffield
109.148.225.116,50.866669,-1.78333,Yes,Maidenhead
109.150.174.154,52.710091,-2.75208,Yes,London
86.145.95.43,52.481419,-1.89983,Yes,Nottingham
92.9.55.139,53.867908,-1.90664,Yes,Nottingham
86.179.153.0,55.01646,-1.44925,Yes,Nottingham
212.139.239.77,53.26667,-0.93333,Yes,Nottingham
92.232.209.18,52.481419,-1.89983,Yes,Nottingham
81.155.229.60,51.456249,-0.97113,Yes,Maidenhead
86.150.197.98,51.841042,-4.68958,Yes,Nottingham
86.142.221.20,51.246769,0.60682,Yes,Belfast
82.10.215.161,52.953602,-1.15047,Yes,Manchester
82.30.240.121,53.480949,-2.23743,Yes,Nottingham
129.96.238.238,-38.47393,145.018967,Yes,Nottingham
84.93.64.114,53.382969,-1.4659,Yes,Nottingham
173.169.104.60,28.02224,-81.732857,Yes,Nottingham
81.86.54.7,53.480949,-2.23743,Yes,Stirling
116.71.52.168,33.6007,73.067902,Yes,London
69.255.64.183,38.637459,-90.237289,Yes,London
86.151.137.74,55.86515,-4.25763,Yes,Nottingham
95.147.191.17,53.34174,-2.73124,Yes,Nottingham
86.16.37.194,53.59481,-0.65513,Yes,Nottingham
2.97.177.172,51.77354,0.68932,Yes,Nottingham
90.221.198.148,50.371529,-4.14305,Yes,Nottingham
175.39.8.107,-37.813999,144.963318,Yes,Nottingham
94.197.41.31,53.34174,-2.73124,Yes,Birmingham
78.150.155.78,53.382969,-1.4659,Yes,Nottingham
90.200.176.192,51.50853,-0.12574,Yes,Nottingham
86.157.21.144,54.98333,-7.03333,Yes,Nottingham
86.9.32.9,53.480949,-2.23743,Yes,Manchester
213.105.95.1,51.50853,-0.12574,Yes,Cardiff
86.128.53.54,50.105202,-5.55176,Yes,Leeds
217.42.12.173,51.50853,-0.12574,Yes,London
86.129.27.160,55.76667,-4.03333,Yes,Brighton
81.129.253.17,51.522789,-0.71986,Yes,Chepstow
195.93.21.2,38.997707,-77.433182,Yes,Cambridge
82.28.244.124,53.480949,-2.23743,Yes,Manchester
70.126.197.102,27.770861,-82.679268,Yes,Nottingham
82.132.248.186,51.509491,-0.59541,Yes,Leicester
66.97.144.2,32.7668,-96.599159,Yes,Brighton
24.91.53.139,42.375099,-71.105614,Yes,Sunbury-on-Thames
193.62.3.251,53.480949,-2.23743,Yes,Cardiff
92.12.219.112,53.617661,-2.1552,Yes,London
81.129.6.94,55.73595,-3.83019,Yes,Swindon
129.11.105.158,51.246769,0.60682,Yes,Burnham-on-Sea
217.41.8.192,58.592709,-3.52594,Yes,Nottingham
90.192.77.56,53.382969,-1.4659,Yes,Larbert
79.71.78.162,53.382969,-1.4659,Yes,Nottingham
5.151.46.0,53.382969,-1.4659,Yes,Moscow
82.16.238.243,53.480949,-2.23743,Yes,Manchester
185.3.87.0,54.77676,-1.57566,Yes,Burgh le Marsh
128.243.253.114,52.953602,-1.15047,Yes,Sunbury-on-Thames
2.103.86.50,54.98333,-7.35,Yes,Sheffield
79.71.104.23,53.480949,-2.23743,Yes,Nottingham
164.11.163.20,51.455231,-2.59665,Yes,Walton le Dale
80.42.247.31,52.155499,1.0516,Yes,Manchester
94.15.181.207,51.294239,-0.75565,Yes,Newtown
88.109.205.106,51.50853,-0.12574,Yes,Leeds
81.136.40.242,51.246769,0.60682,Yes,Sunbury-on-Thames
92.40.40.149,55.01646,-1.44925,Yes,Lancaster
24.237.194.193,61.190395,-149.890411,Yes,Cardiff
194.176.105.150,52.481419,-1.89983,Yes,Nottingham
76.27.116.68,40.609669,-111.939102,Yes,Birmingham
86.141.137.221,51.50853,-0.12574,Yes,Bournemouth
217.42.5.160,53.41058,-2.97794,Yes,Nottingham
149.254.51.1,51.515282,0.05659,Yes,Nottingham
86.165.41.137,55.952061,-3.19648,Yes,New Marske
78.33.181.107,51.50853,-0.12574,Yes,Nottingham
78.145.180.226,51.50853,-0.12574,Yes,Derby
195.93.21.66,38.997707,-77.433182,Yes,Nottingham
86.14.41.138,51.50853,-0.12574,Yes,Nottingham
88.110.149.173,53.480949,-2.23743,Yes,Nottingham
86.8.102.94,51.73333,-2.36667,Yes,Erskine
81.7.1.103,52.611309,13.31783,Yes,Nottingham
81.153.204.63,52.481419,-1.89983,Yes,London
89.243.65.4,53.382969,-1.4659,Yes,Leeds
24.218.129.70,41.700111,-70.299469,Yes,Cardiff
222.66.117.21,31.224333,121.469139,Yes,Wolverhampton
82.10.37.236,52.953602,-1.15047,Yes,Nottingham
83.136.45.144,53.433331,-7.95,Yes,Osmaston
165.95.17.163,30.611055,-96.349129,Yes,Worcester
219.88.25.92,-36.866669,174.766663,Yes,London
118.92.5.211,-36.866669,174.766663,Yes,Manchester
143.117.224.106,54.583328,-5.93333,Yes,Birmingham
86.138.160.56,52.743198,-3.88508,Yes,Birmingham
89.206.152.226,51.50853,-0.12574,Yes,Flixton
220.225.127.238,19.075975,72.87738,Yes,Cambridge
77.86.50.216,53.744598,-0.33525,Yes,Bartley
81.151.157.94,52.602489,0.2219,Yes,Lancaster
194.176.105.52,52.481419,-1.89983,Yes,Bude
109.234.195.202,52.922771,-1.47663,Yes,Warrington
86.0.230.241,51.50853,-0.12574,Yes,Cambridge
86.141.176.42,52.365829,0.87641,Yes,Dulles
82.28.237.235,55.952061,-3.19648,Yes,Annesley
82.31.58.213,53.480949,-2.23743,Yes,Portsmouth
82.23.16.85,51.406059,0.01519,Yes,Broughton
80.6.113.86,52.210579,0.06094,Yes,Leicester
84.9.168.67,53.29483,-3.72674,Yes,Uxbridge
82.15.3.216,51.456249,-0.97113,Yes,Uxbridge
79.70.143.15,54.604099,-1.3806,Yes,Nottingham
128.243.253.112,52.953602,-1.15047,Yes,Nottingham
90.203.86.254,51.406059,0.01519,Yes,Nottingham
90.211.162.254,52.521221,-1.03175,Yes,Nottingham
86.144.16.221,57.19553,-3.8259,Yes,Nottingham
82.29.221.63,50.798988,-1.09125,Yes,Nottingham
90.200.16.32,53.480949,-2.23743,Yes,Nottingham
86.15.205.16,51.553059,-0.3023,Yes,Nottingham
86.5.3.125,52.716671,-1.36667,Yes,Nottingham
82.21.200.109,53.480949,-2.23743,Yes,Nottingham
82.5.55.233,52.953602,-1.15047,Yes,Nottingham
86.18.172.107,51.50853,-0.12574,Yes,Nottingham
90.216.244.169,53.900002,-2,Yes,Nottingham
81.96.67.86,53.382969,-1.4659,Yes,Nottingham
137.108.145.10,52.18446,-0.68759,Yes,Nottingham
85.210.88.135,52.907822,0.49387,Yes,Nottingham
155.245.35.211,51.85738,0.94534,Yes,Nottingham
5.70.168.56,51.456249,-0.97113,Yes,Nottingham
94.8.240.142,52.25,-0.88333,Yes,Nottingham
90.204.11.172,51.50853,-0.12574,Yes,Nottingham
113.203.138.159,40.41695,-3.683866,Yes,Nottingham
203.200.111.44,28.635759,77.224449,Yes,Leicester
82.40.123.116,52.481419,-1.89983,Yes,Nottingham
194.66.249.18,52.406559,-1.51217,Yes,Nottingham
82.4.204.196,52.953602,-1.15047,Yes,Nottingham
81.151.76.7,53.41058,-2.97794,Yes,Nottingham
2.91.21.115,24.687731,46.721851,Yes,Nottingham
212.219.240.38,51.50853,-0.12574,Yes,Nottingham
92.9.138.12,55.952061,-3.19648,Yes,Nottingham
121.215.0.195,-31.95224,115.861397,Yes,Nottingham
109.147.166.164,55.94698,-4.92303,Yes,Nottingham
138.40.82.163,51.50853,-0.12574,Yes,Nottingham
200.50.66.98,13.1,-59.616669,Yes,Nottingham
196.219.254.87,31.955219,35.94503,Yes,Nottingham
203.217.75.65,-37.813999,144.963318,Yes,Nottingham
92.30.1.151,51.456249,-0.97113,Yes,Nottingham
62.253.95.143,50.914398,-1.56553,Yes,Nottingham
109.246.48.218,28.805269,-97.003601,Yes,Nottingham
41.235.38.76,31.133051,30.64649,Yes,Nottingham
2.121.79.172,51.50853,-0.12574,Yes,Nottingham
219.90.251.236,-31.950001,115.800003,Yes,Nottingham
167.106.255.101,35.824032,-80.25338,Yes,Nottingham
207.106.148.222,40.712791,-74.006065,Yes,Dervock
77.86.12.173,53.744598,-0.33525,Yes,Luton
69.97.72.107,44.979969,-93.26384,Yes,Nottingham
41.239.150.103,30.06263,31.24967,Yes,Cleethorpes
82.28.93.193,53.480949,-2.23743,Yes,Manchester
204.218.240.98,33.395557,-84.564323,Yes,Huskisson
90.193.158.150,53.792,-1.754,Yes,Sydney
176.249.196.173,55.86515,-4.25763,Yes,Reading
86.131.7.80,52.2463,0.71111,Yes,Istanbul
92.3.134.151,50.90395,-1.40428,Yes,Manchester
86.159.102.39,52.481419,-1.89983,Yes,Tupelo
87.113.6.47,51.522789,-0.71986,Yes,Bergamo
2.126.157.56,52.0602,-1.34029,Yes,-
212.183.140.37,51.40033,-1.32059,Yes,York
92.24.99.185,50.723598,-3.52751,Yes,Birmingham
94.194.46.133,51.505829,-3.57722,Yes,Herringswell
138.217.29.171,-33.867851,151.207321,Yes,Norwich
67.169.221.219,45.49818,-122.43148,Yes,Springside
74.98.94.174,45.523449,-122.676208,Yes,Chelmsford
1.144.97.76,-28.977949,148.997543,Yes,Lincoln
2.29.205.51,51.666672,-3.13333,Yes,Sydney
193.216.140.208,59.332581,18.064899,Yes,Leeds
203.59.106.58,-31.95224,115.861397,Yes,London
172.200.184.131,51.50853,-0.12574,Yes,-
81.109.164.2,50.914398,-1.56553,Yes,Nottingham
88.110.118.159,55.86515,-4.25763,Yes,Manchester
41.77.72.72,0.31628,32.582191,Yes,-
151.228.196.53,51.50853,-0.12574,Yes,Fareham
81.108.176.75,50.828381,-0.13947,Yes,Fayetteville
82.4.231.190,54.576229,-1.23483,Yes,Durham
90.220.254.24,54.066669,-2.83333,Yes,Birmingham
78.149.73.230,51.50853,-0.12574,Yes,Birmingham
94.10.219.127,55.952061,-3.19648,Yes,Penn
31.53.91.214,50.720482,-1.8795,Yes,Edinburgh
78.144.161.34,54.8694,-6.50391,Yes,Glasgow
81.98.134.38,50.914398,-1.56553,Yes,Lyme Regis
81.159.163.237,50.828381,-0.13947,Yes,Scarborough
86.158.158.189,50.828381,-0.13947,Yes,Singapore
90.213.140.171,51.84177,1.2188,Yes,Layham
82.19.30.144,53.480949,-2.23743,Yes,Mollinburn
86.139.65.209,50.77383,-0.78638,Yes,London
89.241.186.82,55.866669,-3.68333,Yes,Edinburgh
78.148.184.22,51.50853,-0.12574,Yes,-
149.254.58.3,52.18446,-0.68759,Yes,-
78.145.190.120,51.50853,-0.12574,Yes,Auckland
217.171.129.72,51.522789,-0.71986,Yes,Sydney
90.217.163.221,53.59145,-2.77028,Yes,Sydney
82.31.56.39,53.480949,-2.23743,Yes,Auckland
92.19.96.101,51.246769,0.60682,Yes,Palmerston North
86.22.97.223,50.798988,-1.09125,Yes,Edinburgh
86.10.70.118,52.573639,-0.24777,Yes,Canterbury
82.29.192.201,53.480949,-2.23743,Yes,Birmingham
88.104.98.129,51.50853,-0.12574,Yes,North Shields
86.128.58.121,54.339008,-1.43243,Yes,Ashby de la Zouch
82.18.35.162,51.50853,-0.12574,Yes,Leeds
88.106.52.189,50.708469,-2.09702,Yes,-
217.42.224.239,52.210579,0.06094,Yes,-
82.20.4.141,53.64904,-1.78416,Yes,Saint Albans
82.9.92.247,51.50853,-0.12574,Yes,Leeds
86.18.172.77,51.50853,-0.12574,Yes,Reading
82.30.35.90,53.480949,-2.23743,Yes,Rochdale
81.96.75.16,55.01646,-1.44925,Yes,Derby
109.149.153.109,51.182781,-3.07861,Yes,London
217.206.68.138,51.50853,-0.12574,Yes,Loftus
198.189.182.36,35.383472,-119.007919,Yes,Liverpool
86.178.122.190,54.700001,-3.26667,Yes,Great Coates
121.222.237.120,-26.66008,153.099533,Yes,Stafford
86.157.139.239,50.723598,-3.52751,Yes,Northampton
212.21.123.122,50.825779,0.1545,Yes,Harrogate Hill
88.104.140.127,51.50853,-0.12574,Yes,Ellingham
81.106.88.197,54.576229,-1.23483,Yes,Shrewsbury
152.78.122.163,50.90395,-1.40428,Yes,Walton le Dale
86.174.119.138,55.86515,-4.25763,Yes,Walton le Dale
205.217.225.19,17.305799,-62.691799,Yes,Birmingham
203.161.74.148,-33.867851,151.207321,Yes,Keighley
80.189.84.150,51.587742,-2.99835,Yes,North Shields
200.40.69.66,-34.833462,-56.167351,Yes,Gamston
89.195.8.152,51.455231,-2.59665,Yes,Birmingham
141.132.11.7,-37.566219,143.849564,Yes,Reading
143.53.124.59,53.792,-1.754,Yes,Llanfallteg West
81.156.71.99,52.18446,-0.68759,Yes,Leeds
82.33.167.79,51.50853,-0.12574,Yes,Nottingham
146.82.5.130,44.923138,-93.438889,Yes,Manchester
58.84.209.252,-33.816669,151.183334,Yes,Nottingham
139.184.30.133,50.842449,0.14248,Yes,Nottingham
62.252.32.12,51.48,-3.18,Yes,Flinders
24.22.249.255,47.75732,-122.244011,Yes,Sheffield
86.31.151.6,52.13459,-0.46632,Yes,Glasgow
94.0.100.81,53.22683,-0.53792,Yes,Winter Haven
203.36.44.12,-33.867851,151.207321,Yes,Manchester
216.159.64.253,42.419064,-96.339066,Yes,Rawalpindi
90.203.133.246,52.481419,-1.89983,Yes,London
216.108.198.147,41.336189,-75.963249,Yes,Saint Louis
118.92.128.92,-36.866669,174.766663,Yes,Glasgow
85.31.94.115,51.50853,-0.12574,Yes,Runcorn
88.77.85.88,50.14328,8.57111,Yes,Frodingham
94.194.84.253,53.815811,-1.60215,Yes,Hull
59.103.25.95,24.9056,67.082199,Yes,Kenn
89.240.167.54,53.382969,-1.4659,Yes,Great Totham
71.117.252.147,45.523449,-122.676208,Yes,Waterston
209.59.105.72,15.33333,-61.25,Yes,Hull
86.129.106.108,57.334919,-2.3199,Yes,Plymouth
124.43.205.153,6.93194,79.847778,Yes,High Beaumont Hill
82.21.204.196,51.50853,-0.12574,Yes,Nottingham
78.148.163.4,55.952061,-3.19648,Yes,Melbourne
75.6.167.170,32.733974,-117.144547,Yes,London
142.222.226.117,43.253063,-79.858826,Yes,Runcorn
86.181.216.85,55.894699,-4.62643,Yes,Nottingham
213.120.144.202,58.592709,-3.52594,Yes,Sheffield
90.206.170.59,51.50853,-0.12574,Yes,London
5.151.28.5,52.953602,-1.15047,Yes,Nottingham
5.151.177.11,51.73333,-2.36667,Yes,Baranailt
79.75.137.5,51.522789,-0.71986,Yes,Nottingham
5.151.46.16,53.382969,-1.4659,Yes,Nottingham
90.192.85.192,51.50853,-0.12574,Yes,Manchester
82.19.84.211,52.18446,-0.68759,Yes,Manchester
5.151.206.114,51.416672,-2.85,Yes,Swindon
185.3.87.9,54.77676,-1.57566,Yes,Nottingham
188.29.58.175,51.50853,-0.12574,Yes,London
92.3.97.140,51.48,-3.18,Yes,Newlyn
90.200.218.163,53.95763,-1.08271,Yes,Nottingham
86.185.68.14,53.480949,-2.23743,Yes,London
82.3.86.193,51.406059,-0.4137,Yes,Hamilton
82.1.50.195,54.583328,-5.93333,Yes,Maidenhead
86.129.45.228,51.50853,-0.12574,Yes,Manchester
115.64.212.207,-27.467939,153.028091,Yes,Birmingham
167.30.56.16,-33.953602,115.073914,Yes,Nottingham
86.173.231.127,53.41058,-2.97794,Yes,Cambridge
98.235.81.46,40.335651,-75.926872,Yes,Dulles
68.228.111.250,33.44838,-112.074043,Yes,Annesley
206.77.0.157,30.291229,-97.764297,Yes,Portsmouth
5.71.66.144,54.066669,-2.83333,Yes,Broughton
89.195.205.58,51.455231,-2.59665,Yes,Uxbridge
165.139.123.17,39.772247,-86.156517,Yes,Nottingham
165.139.0.20,39.772247,-86.156517,Yes,Nottingham
38.111.252.2,41.673706,-86.252724,Yes,Nottingham
64.83.154.2,41.888412,-80.14386,Yes,Nottingham
82.0.83.149,50.914398,-1.56553,Yes,Nottingham
180.129.12.62,1.28967,103.850067,Yes,Nottingham
86.180.105.149,53.480949,-2.23743,Yes,Nottingham
188.31.78.209,55.049999,-7.01667,Yes,Nottingham
82.153.197.195,50.723598,-3.52751,Yes,Nottingham
150.237.149.119,52.48333,-0.75,Yes,Nottingham
83.100.196.102,53.744598,-0.33525,Yes,Nottingham
87.102.84.95,50.316669,-3.91667,Yes,Nottingham
92.12.103.46,52.016899,-1.31192,Yes,Nottingham
5.198.110.80,53.737331,-0.49167,Yes,Nottingham
2.100.36.9,56.2341,-2.68717,Yes,Nottingham
66.249.114.158,29.857241,-95.574242,Yes,Nottingham
72.27.148.156,18.4025,-77.104797,Yes,Nottingham
72.20.128.250,29.9314,-95.605446,Yes,Nottingham
188.248.158.150,24.687731,46.721851,Yes,Nottingham
80.194.245.135,50.914398,-1.56553,Yes,Nottingham
92.4.87.175,53.73333,-2.66667,Yes,Nottingham
167.206.232.123,40.73967,-73.487106,Yes,Nottingham
62.56.63.232,53.95763,-1.08271,Yes,Nottingham
176.24.121.253,51.456249,-0.97113,Yes,Nottingham
82.102.111.50,34.76667,32.416672,Yes,Nottingham
86.22.130.113,52.454048,0.05006,Yes,Nottingham
194.176.105.9,52.481419,-1.89983,Yes,Nottingham
85.12.68.100,52.048161,-0.19844,Yes,Nottingham
62.255.241.85,50.914398,-1.56553,Yes,Nottingham
80.5.200.77,55.01646,-1.44925,Yes,Nottingham
86.24.203.42,53.744598,-0.33525,Yes,Nottingham
10.2.132.17,0,0,Yes,Nottingham
206.82.22.126,40.061401,-76.322037,Yes,Nottingham
68.35.23.9,34.799809,-87.677254,Yes,Nottingham
50.205.174.10,39.729431,-104.831917,Yes,Manchester
50.205.174.2,39.729431,-104.831917,Yes,Saint Petersburg
92.13.90.170,53.10598,-0.17595,Yes,Hull
86.130.117.149,52.18446,-0.68759,Yes,Slough
86.17.127.110,53.570702,-0.13905,Yes,Nottingham
77.86.73.113,53.744598,-0.33525,Yes,Immingham
128.243.2.59,52.953602,-1.15047,Yes,Mesquite
92.29.232.151,51.963749,1.3511,Yes,Cambridge
152.78.171.76,50.90395,-1.40428,Yes,Manchester
98.108.88.111,41.68338,-86.250008,Yes,Rochdale
203.199.232.222,30.734301,76.793297,Yes,Carluke
67.211.8.21,33.862244,-84.470383,Yes,Leeds
172.78.72.150,41.575871,-87.176147,Yes,Thurso
167.206.232.125,40.73967,-73.487106,Yes,-
68.228.111.2,33.44838,-112.074043,Yes,Sheffield
82.18.146.194,51.77655,0.11158,Yes,Sheffield
5.198.118.19,53.737331,-0.49167,Yes,Sheffield
90.206.3.19,54.748409,-1.29468,Yes,Sheffield
195.194.60.61,52.18446,-0.68759,Yes,Manchester
86.25.7.80,53.01667,-2.13333,Yes,Durham
219.89.168.169,-36.866669,174.766663,Yes,Nottingham
87.115.83.77,54.77676,-1.57566,Yes,Foyle Hill
212.219.11.6,53.55024,-2.77348,Yes,Manchester
212.219.143.250,54.576229,-1.23483,Yes,Bristol
90.204.47.121,52.099049,-1.56313,Yes,Manchester
78.149.130.135,55.73595,-3.83019,Yes,Needham Market
92.4.1.78,51.279041,1.07992,Yes,Farnborough
94.7.173.177,50.828381,-0.13947,Yes,London
78.148.158.134,53.596401,-2.83972,Yes,Leeds
178.143.108.4,49.124939,18.32596,Yes,North Shields
2.102.241.23,54.066669,-2.83333,Yes,Anchorage
202.152.78.197,4.58333,114.183327,Yes,Birmingham
82.38.26.223,51.50853,-0.12574,Yes,West Jordan
46.60.252.69,51.671089,-1.28278,Yes,Nottingham
5.71.153.231,53.480949,-2.23743,Yes,Nottingham
86.28.146.134,53.382969,-1.4659,Yes,Runcorn
168.11.225.10,33.731133,-84.409622,Yes,Nottingham
212.44.18.36,51.73333,-2.36667,Yes,Nottingham
62.171.198.5,51.671089,-1.28278,Yes,Nottingham
84.13.171.119,50.798988,-1.09125,Yes,Sheffield
86.135.194.51,54.857441,-3.38842,Yes,London
81.102.26.141,51.50853,-0.12574,Yes,Liverpool
86.3.205.167,51.48,-3.18,Yes,Nottingham
31.51.3.96,53.41058,-2.97794,Yes,Nottingham
213.205.194.14,50.723598,-3.52751,Yes,Nottingham
212.139.92.119,51.40033,-1.32059,Yes,Beckton
62.30.207.219,51.456249,-0.97113,Yes,Nottingham
90.222.87.9,55.333328,-1.58333,Yes,Nottingham
2.126.134.189,51.50853,-0.12574,Yes,Edinburgh
138.37.227.167,51.49514,-0.10057,Yes,London
92.9.138.97,55.952061,-3.19648,Yes,Manchester
81.109.86.116,51.671089,-1.28278,Yes,London
94.192.178.138,51.308891,-2.25278,Yes,Nottingham
91.107.92.231,52.378502,4.89998,Yes,Nottingham
119.12.105.139,47.907711,106.88324,Yes,Dulles
94.172.41.188,52.229771,21.01178,Yes,Nottingham
194.73.100.130,54.066669,-2.83333,Yes,Sheffield
109.156.88.107,56.619999,-3.86453,Yes,Manchester
86.20.128.16,52.638599,-1.13169,Yes,London
92.4.46.4,53.816669,-3.05,Yes,Manchester
86.147.35.188,52.983688,-2.0744,Yes,Nottingham
82.41.74.94,51.406059,-0.4137,Yes,Cambridge
89.241.232.216,53.480949,-2.23743,Yes,Nottingham
86.156.204.57,52.633331,1.11667,Yes,Hermsdorf
46.60.252.76,51.671089,-1.28278,Yes,Nottingham
219.90.137.213,-34.928661,138.598633,Yes,Nottingham
203.26.122.8,-34.928661,138.598633,Yes,Nottingham
1.124.48.211,-12.46113,130.841843,Yes,Nottingham
121.215.176.193,-38.366669,145.133331,Yes,Nottingham
219.90.149.2,-31.950001,115.800003,Yes,Nottingham
118.211.26.26,-23.84761,151.256348,Yes,Nottingham
123.2.63.193,-36.957851,140.738297,Yes,Nottingham
67.141.221.116,37.260891,-85.498848,Yes,Nottingham
41.218.205.129,5.55602,-0.1969,Yes,Nottingham
92.16.225.167,52.97633,-0.02664,Yes,Nottingham
195.195.14.252,54.966671,-2.51667,Yes,Nottingham
86.3.15.168,52.481419,-1.89983,Yes,Nottingham
82.2.167.89,50.914398,-1.56553,Yes,Nottingham
195.194.63.203,52.585281,-1.98396,Yes,Nottingham
94.192.192.3,53.190498,-2.89189,Yes,Nottingham
2.98.240.18,52.666222,0.15938,Yes,Nottingham
211.25.200.66,5.41123,100.335426,Yes,Nottingham
92.40.249.240,51.522789,-0.71986,Yes,Nottingham
86.159.164.102,51.246769,0.60682,Yes,Nottingham
2.24.202.94,50.873089,-4.29836,Yes,Nottingham
159.92.27.130,51.50853,-0.12574,Yes,Nottingham
82.25.71.80,52.67659,-2.44926,Yes,Nottingham
109.145.52.36,53.480949,-2.23743,Yes,Nottingham
86.190.174.38,51.522789,-0.71986,Yes,Nottingham
78.149.168.110,51.246769,0.60682,Yes,Nottingham
90.210.32.180,51.382389,1.33673,Yes,Nottingham
2.28.232.229,51.557968,-1.78116,Yes,Nottingham
84.92.34.224,53.190498,-2.89189,Yes,Nottingham
92.25.23.75,51.456249,-0.97113,Yes,Nottingham
90.213.224.129,51.065128,-1.3187,Yes,Birmingham
180.215.27.55,22.285521,114.157692,Yes,Nottingham
86.147.104.205,51.50853,-0.12574,Yes,Sheffield
90.198.217.126,52.18446,-0.68759,Yes,Barnstable
159.92.101.141,51.50853,-0.12574,Yes,Shanghai
88.109.70.255,52.033329,-1.15,Yes,Nottingham
109.153.14.132,53.792,-1.754,Yes,Athlone
159.92.232.138,51.50853,-0.12574,Yes,College Station
2.31.170.95,51.406059,-0.4137,Yes,Auckland
159.92.100.203,51.50853,-0.12574,Yes,Auckland
86.14.246.67,54.653381,-5.66895,Yes,Belfast
80.6.102.247,52.18446,-0.68759,Yes,Dolgellau
81.157.186.217,52.553249,-0.02414,Yes,London
90.192.179.198,51.50853,-0.12574,Yes,Mumbai
94.194.205.118,55.73595,-3.83019,Yes,Hull
137.73.202.46,51.50853,-0.12574,Yes,Birmingham
82.44.233.52,52.481419,-1.89983,Yes,Upwell
159.92.238.54,51.50853,-0.12574,Yes,Birmingham
90.193.83.18,52.18446,-0.68759,Yes,-
2.30.129.71,52.481419,-1.89983,Yes,Derby
92.1.21.47,50.828381,-0.13947,Yes,London
86.171.253.171,54.863571,-6.27628,Yes,Coney Weston
5.151.46.29,53.382969,-1.4659,Yes,Nottingham
159.92.9.130,51.50853,-0.12574,Yes,Nottingham
82.38.215.215,55.952061,-3.19648,Yes,Edinburgh
86.173.0.46,53.73333,-2.66667,Yes,Manchester
149.241.2.200,51.50853,-0.12574,Yes,Nottingham
90.204.242.129,50.90395,-1.40428,Yes,Bromley
159.92.235.11,51.50853,-0.12574,Yes,Coton
128.86.177.64,51.50853,-0.12574,Yes,Colwyn Bay
90.210.151.215,51.546188,-0.47961,Yes,Reading
159.92.238.51,51.50853,-0.12574,Yes,Nottingham
77.96.85.109,51.319031,-0.55893,Yes,Thorpe Thewles
94.13.94.12,50.723598,-3.52751,Yes,Nottingham
5.151.0.125,51.50853,-0.12574,Yes,Nottingham
86.134.233.232,51.246769,0.60682,Yes,Nottingham
137.73.203.137,51.50853,-0.12574,Yes,Nottingham
137.73.203.154,51.50853,-0.12574,Yes,Nottingham
137.73.203.152,51.50853,-0.12574,Yes,Nottingham
86.160.11.208,53.382969,-1.4659,Yes,Nottingham
86.166.93.129,51.456249,-0.97113,Yes,Bromley
159.92.101.111,51.50853,-0.12574,Yes,Saddington
151.227.74.154,52.481419,-1.89983,Yes,Aviemore
91.104.124.61,46.913689,17.889179,Yes,Nottingham
80.1.232.196,53.480949,-2.23743,Yes,Nottingham
79.71.111.147,53.480949,-2.23743,Yes,Nottingham
149.254.250.235,51.246769,0.60682,Yes,Nottingham
90.214.177.253,50.97757,-2.99774,Yes,Portsmouth
2.127.61.214,51.587742,-2.99835,Yes,Manchester
31.49.166.34,57.143688,-2.09814,Yes,Brent
136.148.169.34,51.50853,-0.12574,Yes,Nottingham
46.16.7.213,51.294239,-0.75565,Yes,Coalville
92.14.23.248,54.326328,-5.70345,Yes,Manchester
78.149.126.121,51.50853,-0.12574,Yes,Nottingham
92.16.112.42,53.480949,-2.23743,Yes,Nottingham
85.12.80.1,52.048161,-0.19844,Yes,Lancaster
171.33.196.170,51.50853,-0.12574,Yes,London
195.194.74.213,50.23315,-5.22434,Yes,Glusburn
212.159.87.177,51.246769,0.60682,Yes,Sheffield
90.197.83.0,53.22683,-0.53792,Yes,Nottingham
136.148.167.245,51.50853,-0.12574,Yes,Nottingham
115.132.156.96,2.93527,101.691116,Yes,Nottingham
202.14.216.128,-36.866669,174.766663,Yes,Nottingham
122.57.198.16,-36.866669,174.766663,Yes,Nottingham
118.93.238.7,-41.28664,174.775574,Yes,Nottingham
222.154.119.198,-42.466671,171.199997,Yes,Nottingham
222.155.173.35,-36.866669,174.766663,Yes,Birmingham
27.252.62.109,-36.866669,174.766663,Yes,Nottingham
202.89.156.183,-37.686111,176.166672,Yes,Nottingham
118.92.137.63,-36.400002,174.666672,Yes,Nottingham
78.146.111.219,51.246769,0.60682,Yes,Nottingham
92.13.51.24,51.406059,-0.4137,Yes,Warrington
89.241.239.184,53.480949,-2.23743,Yes,Heacham
193.28.228.85,51.221722,6.77616,Yes,Rowhedge
125.239.133.184,-45.030231,168.662704,Yes,Reading
217.206.230.2,51.75,-0.33333,Yes,Northampton
222.153.176.175,-41.752621,171.603699,Yes,London
213.106.248.45,50.914398,-1.56553,Yes,Madrid
82.203.24.241,52.700001,0.95,Yes,New Delhi
5.151.177.14,51.73333,-2.36667,Yes,Birmingham
82.5.18.61,51.456249,-0.97113,Yes,Coventry
143.167.173.188,53.382969,-1.4659,Yes,Nottingham
82.21.199.214,53.480949,-2.23743,Yes,Birmingham
86.15.88.207,55.952061,-3.19648,Yes,London
92.40.254.93,51.522789,-0.71986,Yes,Liverpool
109.158.72.194,50.723598,-3.52751,Yes,Riyadh
2.220.192.234,50.828381,-0.13947,Yes,London
146.90.135.203,57.887348,-4.07856,Yes,Edinburgh
82.22.121.91,50.798988,-1.09125,Yes,Perth
94.15.112.216,55.333328,-1.58333,Yes,Dunoon
31.205.42.177,53.382969,-1.4659,Yes,London
82.13.234.156,51.50853,-0.12574,Yes,Bridgetown
81.132.17.49,51.235359,-0.57427,Yes,Amman
79.70.72.26,53.382969,-1.4659,Yes,Melbourne
81.131.88.155,52.240429,1.41724,Yes,Reading
2.216.236.55,52.481419,-1.89983,Yes,Bartley
86.148.17.193,57.5,-3,Yes,Victoria
88.104.127.0,51.456249,-0.97113,Yes,Disuq
95.149.232.101,55.952061,-3.19648,Yes,London
92.8.33.37,52.406559,-1.51217,Yes,Subiaco
86.141.179.68,51.896278,-1.01714,Yes,Subiaco
86.128.226.78,51.50853,-0.12574,Yes,Lexington
81.159.165.223,53.647789,-3.00648,Yes,New York City
86.137.227.250,50.655121,-1.28334,Yes,Hull
92.3.138.103,50.828381,-0.13947,Yes,Minneapolis
95.144.200.50,51.73333,-2.36667,Yes,Cairo
94.169.53.228,51.922501,4.47917,Yes,Manchester
87.112.214.207,52.18446,-0.68759,Yes,Peachtree City
86.183.251.135,51.129509,1.08896,Yes,Bradford
89.241.81.177,51.279041,1.07992,Yes,Glasgow
86.155.147.192,56.11903,-3.93682,Yes,Bury St Edmunds
82.6.113.139,51.40033,-1.32059,Yes,Southampton
92.27.1.17,51.456249,-0.97113,Yes,Birmingham
92.9.38.28,53.41058,-2.97794,Yes,Maidenhead
5.150.101.214,51.50853,-0.12574,Yes,Banbury
90.206.85.253,52.481419,-1.89983,Yes,Newbury
128.243.219.32,52.953602,-1.15047,Yes,Exeter
86.19.109.13,53.536751,-0.09105,Yes,Bridgend
92.234.17.111,52.481419,-1.89983,Yes,Sydney
89.211.4.4,25.27932,51.522449,Yes,Gresham
89.211.176.121,25.36861,51.226391,Yes,Portland
46.42.90.208,26.215361,50.583199,Yes,Birmingham
82.34.84.254,52.67659,-2.44926,Yes,Mungindi
94.169.9.141,51.922501,4.47917,Yes,Newbridge
90.208.36.191,52.966671,-1.18333,Yes,Stockholm
84.43.100.121,53.003819,-2.28741,Yes,Perth
176.25.108.242,52.842911,-1.34188,Yes,Cambridge
218.186.16.253,1.28967,103.850067,Yes,London
143.167.173.111,53.382969,-1.4659,Yes,Bartley
143.167.26.80,53.382969,-1.4659,Yes,Glasgow
82.24.3.7,53.480949,-2.23743,Yes,Kampala
90.220.21.74,54.77676,-1.57566,Yes,London
92.21.146.22,55.14983,-1.64771,Yes,Brighton
212.219.240.75,51.50853,-0.12574,Yes,Middlesbrough
24.18.1.71,48.293159,-122.643219,Yes,Lancaster
75.147.181.101,39.947819,-74.911682,Yes,London
94.1.110.241,56.05825,-2.7229,Yes,Runcorn
152.78.228.66,50.90395,-1.40428,Yes,Edinburgh
212.219.90.97,55.045391,-3.60572,Yes,Bournemouth
152.78.250.90,50.90395,-1.40428,Yes,Claudy
31.205.68.130,55.952061,-3.19648,Yes,Nottingham
152.78.212.220,50.90395,-1.40428,Yes,Nottingham
86.30.68.54,51.88921,0.90421,Yes,Nottingham
152.78.212.215,50.90395,-1.40428,Yes,Bartley
212.250.202.241,50.914398,-1.56553,Yes,Brighton
86.162.39.151,51.50853,-0.12574,Yes,Brighton
194.66.175.81,53.003819,-2.28741,Yes,Kirby Cross
194.83.56.222,54.77676,-1.57566,Yes,Manchester
194.176.105.22,52.481419,-1.89983,Yes,Sidlesham
194.176.105.156,52.481419,-1.89983,Yes,Whitburn
86.130.71.166,50.922649,-1.19953,Yes,London
77.244.139.61,51.480259,-0.1993,Yes,Warrington
42.152.54.54,3.1412,101.686531,Yes,Manchester
110.39.22.114,31.549721,74.343613,Yes,London
86.20.127.149,51.456249,-0.97113,Yes,Maidenhead
51.7.145.47,50.125561,-5.47505,Yes,Parbold
86.157.118.73,53.34174,-2.73124,Yes,Birmingham
94.194.209.10,53.382969,-1.4659,Yes,Manchester
92.20.230.225,51.40033,-1.32059,Yes,Nottingham
71.231.8.131,47.603909,-122.329842,Yes,Manchester
82.7.139.85,51.50853,-0.12574,Yes,Leeds
77.101.224.244,51.50853,-0.12574,Yes,Portsmouth
143.167.199.1,53.382969,-1.4659,Yes,Peterborough
82.18.139.79,51.564041,0.09631,Yes,Nottingham
139.153.239.116,56.11903,-3.93682,Yes,Manchester
92.41.194.175,51.522789,-0.71986,Yes,Birmingham
78.149.12.46,52.210579,0.06094,Yes,Nottingham
94.196.13.86,51.942589,1.2527,Yes,Nottingham
164.11.204.131,51.455231,-2.59665,Yes,Nottingham
78.151.203.6,50.371529,-4.14305,Yes,London
86.147.16.210,53.41058,-2.97794,Yes,Northallerton
77.96.115.21,55.952061,-3.19648,Yes,London
86.146.109.12,53.382969,-1.4659,Yes,Birmingham
212.219.188.229,51.319031,-0.55893,Yes,Sandford
90.194.188.247,51.557968,-1.78116,Yes,Coton
80.189.124.218,53.480949,-2.23743,Yes,Hermsdorf
10.2.132.31,0,0,Yes,Huddersfield
122.57.71.43,-36.866669,174.766663,Yes,Nottingham
80.6.205.71,51.50853,-0.12574,Yes,Nottingham
195.93.21.41,38.997707,-77.433182,Yes,Nottingham
194.72.231.164,52.370918,-1.26417,Yes,Nottingham
86.31.177.233,51.73333,-2.36667,Yes,Nottingham
78.149.99.184,53.382969,-1.4659,Yes,Nottingham
92.26.230.231,52.481419,-1.89983,Yes,Nottingham
90.220.193.176,51.522789,-0.71986,Yes,Nottingham
37.216.3.22,30.975309,41.038078,Yes,Nottingham
80.4.7.87,54.973282,-1.61396,Yes,Nottingham
92.251.154.142,51.875511,-7.918542,Yes,Nottingham
92.23.191.164,51.455231,-2.59665,Yes,Nottingham
129.11.76.229,51.246769,0.60682,Yes,Nottingham
90.215.127.80,53.382969,-1.4659,Yes,Nottingham
90.221.152.203,51.246769,0.60682,Yes,Nottingham
82.153.197.191,50.723598,-3.52751,Yes,Nottingham
86.167.40.90,51.50853,-0.12574,Yes,Nottingham
222.255.201.253,21.0245,105.841171,Yes,Nottingham
159.92.232.95,51.50853,-0.12574,Yes,Nottingham
129.96.81.234,-34.928661,138.598633,Yes,London
194.80.21.10,51.133331,1.3,Yes,London
101.103.174.230,-34.928661,138.598633,Yes,Manchester
80.1.191.102,50.798988,-1.09125,Yes,North Shields
190.80.110.99,6.80448,-58.15527,Yes,Otterhampton
213.253.19.202,51.50853,-0.12574,Yes,Birmingham
78.105.251.203,53.41058,-2.97794,Yes,London
90.200.221.71,53.480949,-2.23743,Yes,Nottingham
137.73.203.142,51.50853,-0.12574,Yes,Nottingham
92.28.214.192,53.34174,-2.73124,Yes,Nottingham
86.148.108.242,51.50853,-0.12574,Yes,Bakersfield
5.68.231.100,50.739929,-1.70803,Yes,Sunderland
86.154.212.4,52.481419,-1.89983,Yes,Maroochydore
94.168.11.221,51.922501,4.47917,Yes,Exeter
61.18.16.77,22.285521,114.157692,Yes,Berwick
86.9.67.128,53.480949,-2.23743,Yes,London
92.9.140.5,55.777039,-2.34575,Yes,Middlesbrough
95.149.96.127,52.638599,-1.13169,Yes,Southampton
90.209.119.77,50.8727,-2.96597,Yes,Glasgow
94.171.246.242,52.378502,4.89998,Yes,Dalzells
92.239.62.199,55.73595,-3.83019,Yes,Sydney
86.16.90.5,52.244671,0.40418,Yes,Newport
86.148.158.122,53.14024,-1.03392,Yes,Montevideo
217.42.242.22,51.50853,-0.12574,Yes,Bristol
2.99.135.174,53.73333,-2.66667,Yes,Dulles
86.9.112.31,50.914398,-1.56553,Yes,Ballarat
86.156.123.161,54.066669,-2.83333,Yes,Bradford
194.83.177.252,51.455231,-2.59665,Yes,Warrington
78.147.106.81,53.961441,-2.01676,Yes,Springside
82.0.140.232,51.50853,-0.12574,Yes,London
94.196.180.16,52.590721,0.93363,Yes,Minnetonka
90.213.197.221,55.952061,-3.19648,Yes,Artarmon
209.200.157.85,42.363598,-71.085205,Yes,Selmeston
217.44.69.230,51.900002,-2.08333,Yes,Cardiff
83.137.253.200,49.183331,-2.1,Yes,Kenmore
109.152.68.7,51.456249,-0.97113,Yes,Bedford
92.235.75.236,47.498009,19.039909,Yes,Lincoln
94.101.160.1,51.621269,0.30556,Yes,London
82.198.250.69,51.294239,-0.75565,Yes,Sydney
212.85.18.7,51.41259,-0.2974,Yes,Sioux City
90.220.60.60,51.81665,-0.81458,Yes,Birmingham
121.72.184.123,-36.866669,174.766663,Yes,Nottingham
202.14.216.129,-36.866669,174.766663,Yes,Dallas
119.224.76.170,-43.533329,172.633331,Yes,Auckland
122.57.218.43,-41.28664,174.775574,Yes,London
219.79.241.209,22.285521,114.157692,Yes,Eschborn
85.31.137.11,54.583328,-5.93333,Yes,Kirkstall
95.148.3.62,51.262489,-1.08708,Yes,Karachi
222.153.52.199,-40.633331,175.274994,Yes,Sheffield
81.109.150.187,53.822048,-1.5782,Yes,London
222.152.85.111,-46.400002,168.350006,Yes,London
173.171.156.23,28.555269,-82.387871,Yes,London
120.28.8.27,14.55027,121.032692,Yes,Portland
202.153.69.22,-27.716669,153.216675,Yes,La Plaine
2.102.143.144,53.480949,-2.23743,Yes,Oldmeldrum
94.12.89.79,51.455231,-2.59665,Yes,Colombo
84.69.32.252,50.650002,-2.41667,Yes,London
86.2.231.187,53.799999,-2.23333,Yes,Mapleton
212.219.240.39,51.50853,-0.12574,Yes,Edinburgh
92.253.40.32,31.955219,35.94503,Yes,San Diego
213.122.235.121,53.480949,-2.23743,Yes,Hamilton
82.10.220.148,50.914398,-1.56553,Yes,Kilmacolm
81.104.245.40,51.979439,-0.2284,Yes,Thurso
82.28.94.112,53.480949,-2.23743,Yes,London
90.206.206.67,55.333328,-1.58333,Yes,Nottingham
90.242.18.96,51.671089,-1.28278,Yes,Cambridge
82.23.31.107,52.25,-0.88333,Yes,Maidenhead
62.252.32.11,51.48,-3.18,Yes,Sheffield
2.96.175.171,53.818192,-1.45655,Yes,London
89.240.81.162,52.523232,-1.46523,Yes,Warrington
88.109.207.163,51.50853,-0.12574,Yes,Kenn
139.222.60.187,52.627831,1.29834,Yes,Durham
113.210.136.248,5.3302,103.1408,Yes,London
122.200.1.152,-6.178306,106.631889,Yes,Cardiff
98.109.78.178,40.608158,-74.277649,Yes,Nottingham
82.27.248.202,51.592411,-3.78019,Yes,Nottingham
86.15.197.243,51.546188,-0.47961,Yes,York
82.2.27.18,51.50853,-0.12574,Yes,Manchester
88.110.181.58,55.952061,-3.19648,Yes,Birmingham
92.232.37.227,50.371529,-4.14305,Yes,Sunbury-on-Thames
31.205.172.213,53.382969,-1.4659,Yes,Belfast
120.155.33.93,-33.867851,151.207321,Yes,London
5.65.186.224,55.952061,-3.19648,Yes,Brisbane
82.32.131.119,55.01646,-1.44925,Yes,Margaret River
202.152.201.72,-7.24917,112.750832,Yes,Margaret River
95.150.230.137,53.884892,-1.61641,Yes,Liverpool
147.188.105.6,52.481419,-1.89983,Yes,Reading
70.43.198.220,41.875744,-87.618889,Yes,Phoenix
98.245.32.221,39.627781,-106.044167,Yes,Phoenix
78.150.134.76,50.828381,-0.13947,Yes,Phoenix
75.90.119.80,35.088699,-92.442101,Yes,Austin
